{
  "Project2":{
   "name":"Motus Atlantic Array",
   "nameShort":"MotusATL",
   "descriptionShort":"Array of 50+ towers maintained by Bird Studies Canada in support of all projects.",
   "descriptionLong":"Array of 50+ towers maintained by Bird Studies Canada in support of all projects.",
   "createdDt":"2014-01-01 00:00:00.0",
   "tags":[

   ],
   "receivers":{
    "2260":{
     "motusID":     439,
     "serialNo":     "SG-1614BBBK1591",
     "model":     "SENSORGNOME",
     "status":     "terminated",
     "name":     "Prospect",
     "site":     "Prospect",
     "depStart":     1432317600,
     "depEnd":     1442021400,
     "lat":     44.4745,
     "lon":     -63.79359,
     "mobile":     "false"
    },
    "2245":{
     "motusID":     439,
     "serialNo":     "SG-1614BBBK1591",
     "model":     "SENSORGNOME",
     "status":     "terminated",
     "name":     "Prospect",
     "site":     "Prospect",
     "depStart":     1416355200,
     "depEnd":     1432317600,
     "lat":     44.4745,
     "lon":     -63.79359,
     "mobile":     "false"
    },
    "703":{
     "motusID":     439,
     "serialNo":     "SG-1614BBBK1591",
     "model":     "SENSORGNOME",
     "status":     "terminated",
     "name":     "Prospect",
     "site":     "Prospect",
     "depStart":     1401062400,
     "depEnd":     1416355200,
     "lat":     44.4745,
     "lon":     -63.79359,
     "mobile":     "false"
    },
    "696":{
     "motusID":     440,
     "serialNo":     "SG-1614BBBK1595",
     "model":     "SENSORGNOME",
     "status":     "terminated",
     "name":     "Irving Nature Park",
     "site":     "Irving Nature Park",
     "depStart":     1402012800,
     "depEnd":     1418083200,
     "lat":     45.2256,
     "lon":     -66.11246,
     "mobile":     "false"
    },
    "2244":{
     "motusID":     440,
     "serialNo":     "SG-1614BBBK1595",
     "model":     "SENSORGNOME",
     "status":     "terminated",
     "name":     "Irving Nature Park",
     "site":     "Irving Nature Park",
     "depStart":     1418083200,
     "depEnd":     1432925100,
     "lat":     45.2256,
     "lon":     -66.11246,
     "mobile":     "false"
    },
    "2282":{
     "motusID":     440,
     "serialNo":     "SG-1614BBBK1595",
     "model":     "SENSORGNOME",
     "status":     "terminated",
     "name":     "Irving Nature Park",
     "site":     "Irving Nature Park",
     "depStart":     1432925100,
     "depEnd":     1448928000,
     "lat":     45.2256,
     "lon":     -66.11246,
     "mobile":     "false"
    },
    "2190":{
     "motusID":     441,
     "serialNo":     "SG-1614BBBK1603",
     "model":     "SENSORGNOME",
     "status":     "terminated",
     "name":     "Lookoff",
     "site":     "Lookoff",
     "depStart":     1416528000,
     "depEnd":     1431633600,
     "lat":     45.207,
     "lon":     -64.3978,
     "mobile":     "false"
    },
    "2191":{
     "motusID":     441,
     "serialNo":     "SG-1614BBBK1603",
     "model":     "SENSORGNOME",
     "status":     "terminated",
     "name":     "Lookoff",
     "site":     "Lookoff",
     "depStart":     1431633600,
     "depEnd":     1448553600,
     "lat":     45.207,
     "lon":     -64.3978,
     "mobile":     "false"
    },
    "694":{
     "motusID":     441,
     "serialNo":     "SG-1614BBBK1603",
     "model":     "SENSORGNOME",
     "status":     "terminated",
     "name":     "Lookoff",
     "site":     "Lookoff",
     "depStart":     1400544000,
     "depEnd":     1416528000,
     "lat":     45.207,
     "lon":     -64.3978,
     "mobile":     "false"
    },
    "2979":{
     "motusID":     441,
     "serialNo":     "SG-1614BBBK1603",
     "model":     "SENSORGNOME",
     "status":     "terminated",
     "name":     "Lookoff",
     "site":     "Lookoff",
     "depStart":     1460921400,
     "depEnd":     1468878000,
     "lat":     45.207,
     "lon":     -64.3978,
     "mobile":     "false"
    },
    "2673":{
     "motusID":     441,
     "serialNo":     "SG-1614BBBK1603",
     "model":     "SENSORGNOME",
     "status":     "terminated",
     "name":     "Lookoff",
     "site":     "Lookoff",
     "depStart":     1448553600,
     "depEnd":     1460921400,
     "lat":     45.207,
     "lon":     -64.3978,
     "mobile":     "false"
    },
    "3921":{
     "motusID":     441,
     "serialNo":     "SG-1614BBBK1603",
     "model":     "SENSORGNOME",
     "status":     "terminated",
     "name":     "Lookoff",
     "site":     "Lookoff",
     "depStart":     1491850800,
     "depEnd":     1511019000,
     "lat":     45.207,
     "lon":     -64.3978,
     "mobile":     "false"
    },
    "3656":{
     "motusID":     441,
     "serialNo":     "SG-1614BBBK1603",
     "model":     "SENSORGNOME",
     "status":     "terminated",
     "name":     "Lookoff",
     "site":     "Lookoff",
     "depStart":     1480164420,
     "depEnd":     1491850800,
     "lat":     45.207,
     "lon":     -64.3978,
     "mobile":     "false"
    },
    "3293":{
     "motusID":     441,
     "serialNo":     "SG-1614BBBK1603",
     "model":     "SENSORGNOME",
     "status":     "terminated",
     "name":     "Lookoff",
     "site":     "Lookoff",
     "depStart":     1468878000,
     "depEnd":     1480164420,
     "lat":     45.207,
     "lon":     -64.3978,
     "mobile":     "false"
    },
    "4758":{
     "motusID":     441,
     "serialNo":     "SG-1614BBBK1603",
     "model":     "SENSORGNOME",
     "status":     "terminated",
     "name":     "Lookoff",
     "site":     "Lookoff",
     "depStart":     1522953600,
     "depEnd":     1548420540,
     "lat":     45.207,
     "lon":     -64.3978,
     "mobile":     "false"
    },
    "4424":{
     "motusID":     441,
     "serialNo":     "SG-1614BBBK1603",
     "model":     "SENSORGNOME",
     "status":     "terminated",
     "name":     "Lookoff",
     "site":     "Lookoff",
     "depStart":     1511019000,
     "depEnd":     1522953600,
     "lat":     45.207,
     "lon":     -64.3978,
     "mobile":     "false"
    },
    "5238":{
     "motusID":     441,
     "serialNo":     "SG-1614BBBK1603",
     "model":     "SENSORGNOME",
     "status":     "active",
     "name":     "Lookoff",
     "site":     "Lookoff",
     "depStart":     1557237600,
     "depEnd":     "NA",
     "lat":     45.207,
     "lon":     -64.3978,
     "mobile":     "false"
    },
    "4938":{
     "motusID":     442,
     "serialNo":     "SG-1614BBBK1612",
     "model":     "SENSORGNOME",
     "status":     "terminated",
     "name":     "test",
     "site":     "",
     "depStart":     1399593600,
     "depEnd":     1399939140,
     "lat":     45.09,
     "lon":     -64.3697,
     "mobile":     "true"
    },
    "2723":{
     "motusID":     442,
     "serialNo":     "SG-1614BBBK1612",
     "model":     "SENSORGNOME",
     "status":     "terminated",
     "name":     "Prospect 2",
     "site":     "Prospect",
     "depStart":     1442068320,
     "depEnd":     1448469000,
     "lat":     44.4745,
     "lon":     -63.7936,
     "mobile":     "false"
    },
    "2724":{
     "motusID":     442,
     "serialNo":     "SG-1614BBBK1612",
     "model":     "SENSORGNOME",
     "status":     "terminated",
     "name":     "Prospect 2",
     "site":     "Prospect",
     "depStart":     1448469000,
     "depEnd":     1457019000,
     "lat":     44.4745,
     "lon":     -63.7936,
     "mobile":     "false"
    },
    "2925":{
     "motusID":     442,
     "serialNo":     "SG-1614BBBK1612",
     "model":     "SENSORGNOME",
     "status":     "terminated",
     "name":     "Prospect 2",
     "site":     "Prospect",
     "depStart":     1458765000,
     "depEnd":     1460128800,
     "lat":     44.4745,
     "lon":     -63.7936,
     "mobile":     "false"
    },
    "704":{
     "motusID":     442,
     "serialNo":     "SG-1614BBBK1612",
     "model":     "SENSORGNOME",
     "status":     "terminated",
     "name":     "Kingsburg",
     "site":     "Kingsburg",
     "depStart":     1401062400,
     "depEnd":     1416441600,
     "lat":     44.2674,
     "lon":     -64.2595,
     "mobile":     "false"
    },
    "2261":{
     "motusID":     442,
     "serialNo":     "SG-1614BBBK1612",
     "model":     "SENSORGNOME",
     "status":     "terminated",
     "name":     "Kingsburg",
     "site":     "Kingsburg",
     "depStart":     1432420800,
     "depEnd":     1442068320,
     "lat":     44.2674,
     "lon":     -64.2595,
     "mobile":     "false"
    },
    "2246":{
     "motusID":     442,
     "serialNo":     "SG-1614BBBK1612",
     "model":     "SENSORGNOME",
     "status":     "terminated",
     "name":     "Kingsburg",
     "site":     "Kingsburg",
     "depStart":     1416441600,
     "depEnd":     1432420800,
     "lat":     44.2674,
     "lon":     -64.2595,
     "mobile":     "false"
    },
    "2194":{
     "motusID":     443,
     "serialNo":     "SG-1614BBBK1613",
     "model":     "SENSORGNOME",
     "status":     "terminated",
     "name":     "Cape Forchu",
     "site":     "Cape Forchu",
     "depStart":     1416441600,
     "depEnd":     1431543600,
     "lat":     43.79518,
     "lon":     -66.15555,
     "mobile":     "false"
    },
    "2262":{
     "motusID":     443,
     "serialNo":     "SG-1614BBBK1613",
     "model":     "SENSORGNOME",
     "status":     "terminated",
     "name":     "Cape Forchu",
     "site":     "Cape Forchu",
     "depStart":     1432422000,
     "depEnd":     1448224200,
     "lat":     43.79518,
     "lon":     -66.15555,
     "mobile":     "false"
    },
    "730":{
     "motusID":     443,
     "serialNo":     "SG-1614BBBK1613",
     "model":     "SENSORGNOME",
     "status":     "terminated",
     "name":     "Cape Forchu",
     "site":     "Cape Forchu",
     "depStart":     1402704000,
     "depEnd":     1416441600,
     "lat":     43.79518,
     "lon":     -66.15555,
     "mobile":     "false"
    },
    "3019":{
     "motusID":     443,
     "serialNo":     "SG-1614BBBK1613",
     "model":     "SENSORGNOME",
     "status":     "terminated",
     "name":     "Cape Forchu",
     "site":     "Cape Forchu",
     "depStart":     1461099600,
     "depEnd":     1480449600,
     "lat":     43.79518,
     "lon":     -66.15555,
     "mobile":     "false"
    },
    "2689":{
     "motusID":     443,
     "serialNo":     "SG-1614BBBK1613",
     "model":     "SENSORGNOME",
     "status":     "terminated",
     "name":     "Cape Forchu",
     "site":     "Cape Forchu",
     "depStart":     1448224200,
     "depEnd":     1461099600,
     "lat":     43.79518,
     "lon":     -66.15555,
     "mobile":     "false"
    },
    "4417":{
     "motusID":     443,
     "serialNo":     "SG-1614BBBK1613",
     "model":     "SENSORGNOME",
     "status":     "terminated",
     "name":     "Cape Forchu",
     "site":     "Cape Forchu",
     "depStart":     1511205420,
     "depEnd":     1518652740,
     "lat":     43.7952,
     "lon":     -66.1556,
     "mobile":     "false"
    },
    "3661":{
     "motusID":     443,
     "serialNo":     "SG-1614BBBK1613",
     "model":     "SENSORGNOME",
     "status":     "terminated",
     "name":     "Cape Forchu",
     "site":     "Cape Forchu",
     "depStart":     1480449600,
     "depEnd":     1491685200,
     "lat":     43.79518,
     "lon":     -66.15555,
     "mobile":     "false"
    },
    "3911":{
     "motusID":     443,
     "serialNo":     "SG-1614BBBK1613",
     "model":     "SENSORGNOME",
     "status":     "terminated",
     "name":     "Cape Forchu",
     "site":     "Cape Forchu",
     "depStart":     1491685200,
     "depEnd":     1511205420,
     "lat":     43.7952,
     "lon":     -66.1556,
     "mobile":     "false"
    },
    "714":{
     "motusID":     444,
     "serialNo":     "SG-1614BBBK1615",
     "model":     "SENSORGNOME",
     "status":     "terminated",
     "name":     "Stanton (Digby Neck)",
     "site":     "Stanton (Digby Neck)",
     "depStart":     1401580800,
     "depEnd":     1416528000,
     "lat":     44.4297,
     "lon":     -66.1654,
     "mobile":     "false"
    },
    "2197":{
     "motusID":     444,
     "serialNo":     "SG-1614BBBK1615",
     "model":     "SENSORGNOME",
     "status":     "terminated",
     "name":     "Stanton (Digby Neck)",
     "site":     "Stanton (Digby Neck)",
     "depStart":     1416528000,
     "depEnd":     1431611100,
     "lat":     44.4297,
     "lon":     -66.1654,
     "mobile":     "false"
    },
    "2198":{
     "motusID":     444,
     "serialNo":     "SG-1614BBBK1615",
     "model":     "SENSORGNOME",
     "status":     "terminated",
     "name":     "Stanton (Digby Neck)",
     "site":     "Stanton (Digby Neck)",
     "depStart":     1431611100,
     "depEnd":     1443092400,
     "lat":     44.4297,
     "lon":     -66.1654,
     "mobile":     "false"
    },
    "2263":{
     "motusID":     445,
     "serialNo":     "SG-1614BBBK1617",
     "model":     "SENSORGNOME",
     "status":     "terminated",
     "name":     "Matthew's Lake",
     "site":     "Matthew's Lake",
     "depStart":     1432392000,
     "depEnd":     1444867200,
     "lat":     43.6993,
     "lon":     -65.0284,
     "mobile":     "false"
    },
    "2248":{
     "motusID":     445,
     "serialNo":     "SG-1614BBBK1617",
     "model":     "SENSORGNOME",
     "status":     "terminated",
     "name":     "Matthew's Lake",
     "site":     "Matthew's Lake",
     "depStart":     1416441600,
     "depEnd":     1432392000,
     "lat":     43.6993,
     "lon":     -65.0284,
     "mobile":     "false"
    },
    "705":{
     "motusID":     445,
     "serialNo":     "SG-1614BBBK1617",
     "model":     "SENSORGNOME",
     "status":     "terminated",
     "name":     "Matthew's Lake",
     "site":     "Matthew's Lake",
     "depStart":     1401148800,
     "depEnd":     1416441600,
     "lat":     43.6993,
     "lon":     -65.0284,
     "mobile":     "false"
    },
    "2678":{
     "motusID":     445,
     "serialNo":     "SG-1614BBBK1617",
     "model":     "SENSORGNOME",
     "status":     "terminated",
     "name":     "Middle Ohio 3",
     "site":     "Middle Ohio",
     "depStart":     1446925500,
     "depEnd":     1448374800,
     "lat":     43.9247,
     "lon":     -65.4042,
     "mobile":     "false"
    },
    "2679":{
     "motusID":     445,
     "serialNo":     "SG-1614BBBK1617",
     "model":     "SENSORGNOME",
     "status":     "terminated",
     "name":     "Middle Ohio 3",
     "site":     "Middle Ohio",
     "depStart":     1448374800,
     "depEnd":     1461168000,
     "lat":     43.9247,
     "lon":     -65.4042,
     "mobile":     "false"
    },
    "3022":{
     "motusID":     445,
     "serialNo":     "SG-1614BBBK1617",
     "model":     "SENSORGNOME",
     "status":     "terminated",
     "name":     "Middle Ohio 3",
     "site":     "Middle Ohio",
     "depStart":     1461168000,
     "depEnd":     1467244800,
     "lat":     43.9247,
     "lon":     -65.4042,
     "mobile":     "false"
    },
    "3907":{
     "motusID":     445,
     "serialNo":     "SG-1614BBBK1617",
     "model":     "SENSORGNOME",
     "status":     "terminated",
     "name":     "Middle Ohio 3",
     "site":     "Middle Ohio",
     "depStart":     1491657000,
     "depEnd":     1511287200,
     "lat":     43.9247,
     "lon":     -65.4042,
     "mobile":     "false"
    },
    "3665":{
     "motusID":     445,
     "serialNo":     "SG-1614BBBK1617",
     "model":     "SENSORGNOME",
     "status":     "terminated",
     "name":     "Middle Ohio 3",
     "site":     "Middle Ohio",
     "depStart":     1480526220,
     "depEnd":     1491657000,
     "lat":     43.9247,
     "lon":     -65.4042,
     "mobile":     "false"
    },
    "3302":{
     "motusID":     445,
     "serialNo":     "SG-1614BBBK1617",
     "model":     "SENSORGNOME",
     "status":     "terminated",
     "name":     "Middle Ohio 3",
     "site":     "Middle Ohio",
     "depStart":     1468698600,
     "depEnd":     1480526220,
     "lat":     43.9247,
     "lon":     -65.4042,
     "mobile":     "false"
    },
    "4409":{
     "motusID":     445,
     "serialNo":     "SG-1614BBBK1617",
     "model":     "SENSORGNOME",
     "status":     "terminated",
     "name":     "Middle Ohio",
     "site":     "Middle Ohio",
     "depStart":     1511287200,
     "depEnd":     1522780200,
     "lat":     43.9247,
     "lon":     -65.4042,
     "mobile":     "false"
    },
    "4768":{
     "motusID":     445,
     "serialNo":     "SG-1614BBBK1617",
     "model":     "SENSORGNOME",
     "status":     "terminated",
     "name":     "Middle Ohio",
     "site":     "Middle Ohio",
     "depStart":     1522780200,
     "depEnd":     1533038400,
     "lat":     43.9247,
     "lon":     -65.4042,
     "mobile":     "false"
    },
    "5207":{
     "motusID":     445,
     "serialNo":     "SG-1614BBBK1617",
     "model":     "SENSORGNOME",
     "status":     "terminated",
     "name":     "Brier Island",
     "site":     "Brier Island",
     "depStart":     1533908700,
     "depEnd":     1562850000,
     "lat":     44.2754,
     "lon":     -66.3493,
     "mobile":     "false"
    },
    "5550":{
     "motusID":     445,
     "serialNo":     "SG-1614BBBK1617",
     "model":     "SENSORGNOME",
     "status":     "active",
     "name":     "Brier Island",
     "site":     "Brier Island",
     "depStart":     1565278200,
     "depEnd":     "NA",
     "lat":     44.2754,
     "lon":     -66.3493,
     "mobile":     "false"
    },
    "702":{
     "motusID":     446,
     "serialNo":     "SG-1614BBBK1618",
     "model":     "SENSORGNOME",
     "status":     "terminated",
     "name":     "Kouchibouguac",
     "site":     "Kouchibouguac",
     "depStart":     1400976000,
     "depEnd":     1415750400,
     "lat":     46.7752,
     "lon":     -64.9555,
     "mobile":     "false"
    },
    "2321":{
     "motusID":     446,
     "serialNo":     "SG-1614BBBK1618",
     "model":     "SENSORGNOME",
     "status":     "terminated",
     "name":     "Kouchibouguac",
     "site":     "Kouchibouguac",
     "depStart":     1415750400,
     "depEnd":     1433721600,
     "lat":     46.7752,
     "lon":     -64.9555,
     "mobile":     "false"
    },
    "2174":{
     "motusID":     447,
     "serialNo":     "SG-1614BBBK1634",
     "model":     "SENSORGNOME",
     "status":     "terminated",
     "name":     "New Harbour",
     "site":     "New Harbour",
     "depStart":     1430999160,
     "depEnd":     1447872000,
     "lat":     45.1675,
     "lon":     -61.4548,
     "mobile":     "false"
    },
    "693":{
     "motusID":     447,
     "serialNo":     "SG-1614BBBK1634",
     "model":     "SENSORGNOME",
     "status":     "terminated",
     "name":     "New Harbour",
     "site":     "New Harbour",
     "depStart":     1400371200,
     "depEnd":     1430999160,
     "lat":     45.1675,
     "lon":     -61.4548,
     "mobile":     "false"
    },
    "2940":{
     "motusID":     447,
     "serialNo":     "SG-1614BBBK1634",
     "model":     "SENSORGNOME",
     "status":     "terminated",
     "name":     "New Harbour",
     "site":     "New Harbour",
     "depStart":     1457449200,
     "depEnd":     1479991800,
     "lat":     45.1675,
     "lon":     -61.4548,
     "mobile":     "false"
    },
    "2707":{
     "motusID":     447,
     "serialNo":     "SG-1614BBBK1634",
     "model":     "SENSORGNOME",
     "status":     "terminated",
     "name":     "New Harbour",
     "site":     "New Harbour",
     "depStart":     1447872000,
     "depEnd":     1457449200,
     "lat":     45.1675,
     "lon":     -61.4548,
     "mobile":     "false"
    },
    "3652":{
     "motusID":     447,
     "serialNo":     "SG-1614BBBK1634",
     "model":     "SENSORGNOME",
     "status":     "terminated",
     "name":     "New Harbour",
     "site":     "New Harbour",
     "depStart":     1479991800,
     "depEnd":     1554242400,
     "lat":     45.1675,
     "lon":     -61.4548,
     "mobile":     "false"
    },
    "3666":{
     "motusID":     448,
     "serialNo":     "SG-1614BBBK1635",
     "model":     "SENSORGNOME",
     "status":     "terminated",
     "name":     "Jordan Bay",
     "site":     "Jordan Bay",
     "depStart":     1480529100,
     "depEnd":     1491653100,
     "lat":     43.691394,
     "lon":     -65.23528,
     "mobile":     "false"
    },
    "3301":{
     "motusID":     448,
     "serialNo":     "SG-1614BBBK1635",
     "model":     "SENSORGNOME",
     "status":     "terminated",
     "name":     "Jordan Bay/Orchard Park",
     "site":     "Jordan Bay",
     "depStart":     1468694400,
     "depEnd":     1480529100,
     "lat":     43.6914,
     "lon":     -65.2353,
     "mobile":     "false"
    },
    "3906":{
     "motusID":     448,
     "serialNo":     "SG-1614BBBK1635",
     "model":     "SENSORGNOME",
     "status":     "terminated",
     "name":     "Jordan Bay",
     "site":     "Jordan Bay",
     "depStart":     1491653100,
     "depEnd":     1554472620,
     "lat":     43.6914,
     "lon":     -65.2353,
     "mobile":     "false"
    },
    "2684":{
     "motusID":     448,
     "serialNo":     "SG-1614BBBK1635",
     "model":     "SENSORGNOME",
     "status":     "terminated",
     "name":     "Jordan Bay/Orchard Park",
     "site":     "Jordan Bay",
     "depStart":     1448377800,
     "depEnd":     1457368200,
     "lat":     43.6914,
     "lon":     -65.2353,
     "mobile":     "false"
    },
    "2938":{
     "motusID":     448,
     "serialNo":     "SG-1614BBBK1635",
     "model":     "SENSORGNOME",
     "status":     "terminated",
     "name":     "Jordan Bay/Orchard Park",
     "site":     "Jordan Bay",
     "depStart":     1457368200,
     "depEnd":     1468694400,
     "lat":     43.6914,
     "lon":     -65.2353,
     "mobile":     "false"
    },
    "708":{
     "motusID":     448,
     "serialNo":     "SG-1614BBBK1635",
     "model":     "SENSORGNOME",
     "status":     "terminated",
     "name":     "Jordan Bay/Orchard Park",
     "site":     "Jordan Bay",
     "depStart":     1401148800,
     "depEnd":     1416441600,
     "lat":     43.6914,
     "lon":     -65.2353,
     "mobile":     "false"
    },
    "2264":{
     "motusID":     448,
     "serialNo":     "SG-1614BBBK1635",
     "model":     "SENSORGNOME",
     "status":     "terminated",
     "name":     "Jordan Bay/Orchard Park",
     "site":     "Jordan Bay",
     "depStart":     1432399500,
     "depEnd":     1448377800,
     "lat":     43.6914,
     "lon":     -65.2353,
     "mobile":     "false"
    },
    "2250":{
     "motusID":     448,
     "serialNo":     "SG-1614BBBK1635",
     "model":     "SENSORGNOME",
     "status":     "terminated",
     "name":     "Jordan Bay/Orchard Park",
     "site":     "Jordan Bay",
     "depStart":     1416441600,
     "depEnd":     1432399500,
     "lat":     43.6914,
     "lon":     -65.2353,
     "mobile":     "false"
    },
    "5278":{
     "motusID":     448,
     "serialNo":     "SG-1614BBBK1635",
     "model":     "SENSORGNOME",
     "status":     "active",
     "name":     "Jordan Bay",
     "site":     "Jordan Bay",
     "depStart":     1554472800,
     "depEnd":     "NA",
     "lat":     43.6914,
     "lon":     -65.2353,
     "mobile":     "false"
    },
    "2175":{
     "motusID":     449,
     "serialNo":     "SG-1614BBBK1638",
     "model":     "SENSORGNOME",
     "status":     "terminated",
     "name":     "Sonora",
     "site":     "Sonora",
     "depStart":     1430994240,
     "depEnd":     1447862100,
     "lat":     45.05455,
     "lon":     -61.89566,
     "mobile":     "false"
    },
    "692":{
     "motusID":     449,
     "serialNo":     "SG-1614BBBK1638",
     "model":     "SENSORGNOME",
     "status":     "terminated",
     "name":     "Sonora",
     "site":     "Sonora",
     "depStart":     1400371200,
     "depEnd":     1430994240,
     "lat":     45.0546,
     "lon":     -61.8959,
     "mobile":     "false"
    },
    "3045":{
     "motusID":     449,
     "serialNo":     "SG-1614BBBK1638",
     "model":     "SENSORGNOME",
     "status":     "terminated",
     "name":     "Sonora",
     "site":     "Sonora",
     "depStart":     1461792480,
     "depEnd":     1493892240,
     "lat":     45.0546,
     "lon":     -61.8959,
     "mobile":     "false"
    },
    "2942":{
     "motusID":     449,
     "serialNo":     "SG-1614BBBK1638",
     "model":     "SENSORGNOME",
     "status":     "terminated",
     "name":     "Sonora",
     "site":     "Sonora",
     "depStart":     1458831600,
     "depEnd":     1461792480,
     "lat":     45.05455,
     "lon":     -61.89566,
     "mobile":     "false"
    },
    "2706":{
     "motusID":     449,
     "serialNo":     "SG-1614BBBK1638",
     "model":     "SENSORGNOME",
     "status":     "terminated",
     "name":     "Sonora",
     "site":     "Sonora",
     "depStart":     1447862100,
     "depEnd":     1458831600,
     "lat":     45.05455,
     "lon":     -61.89566,
     "mobile":     "false"
    },
    "706":{
     "motusID":     450,
     "serialNo":     "SG-1614BBBK1659",
     "model":     "SENSORGNOME",
     "status":     "terminated",
     "name":     "Port Mouton",
     "site":     "Port Mouton",
     "depStart":     1401235200,
     "depEnd":     1416441600,
     "lat":     43.9459,
     "lon":     -64.8394,
     "mobile":     "false"
    },
    "2251":{
     "motusID":     450,
     "serialNo":     "SG-1614BBBK1659",
     "model":     "SENSORGNOME",
     "status":     "terminated",
     "name":     "Port Mouton",
     "site":     "Port Mouton",
     "depStart":     1416441600,
     "depEnd":     1432385400,
     "lat":     43.9459,
     "lon":     -64.8394,
     "mobile":     "false"
    },
    "2265":{
     "motusID":     450,
     "serialNo":     "SG-1614BBBK1659",
     "model":     "SENSORGNOME",
     "status":     "terminated",
     "name":     "Port Mouton",
     "site":     "Port Mouton",
     "depStart":     1432385400,
     "depEnd":     1444262340,
     "lat":     43.9459,
     "lon":     -64.8394,
     "mobile":     "false"
    },
    "5627":{
     "motusID":     450,
     "serialNo":     "SG-1614BBBK1659",
     "model":     "SENSORGNOME",
     "status":     "terminated",
     "name":     "Cape Jourimain",
     "site":     "Cape Jourimain",
     "depStart":     1564783200,
     "depEnd":     1567857600,
     "lat":     46.1501,
     "lon":     -63.8421,
     "mobile":     "false"
    },
    "2252":{
     "motusID":     451,
     "serialNo":     "SG-1614BBBK1660",
     "model":     "SENSORGNOME",
     "status":     "terminated",
     "name":     "Escuminac",
     "site":     "Escuminac",
     "depStart":     1415750400,
     "depEnd":     1433779200,
     "lat":     47.0794,
     "lon":     -64.8736,
     "mobile":     "false"
    },
    "2322":{
     "motusID":     451,
     "serialNo":     "SG-1614BBBK1660",
     "model":     "SENSORGNOME",
     "status":     "terminated",
     "name":     "Escuminac",
     "site":     "Escuminac",
     "depStart":     1433779200,
     "depEnd":     1447506000,
     "lat":     47.0794,
     "lon":     -64.8736,
     "mobile":     "false"
    },
    "701":{
     "motusID":     451,
     "serialNo":     "SG-1614BBBK1660",
     "model":     "SENSORGNOME",
     "status":     "terminated",
     "name":     "Escuminac",
     "site":     "Escuminac",
     "depStart":     1400976000,
     "depEnd":     1415750400,
     "lat":     47.0794,
     "lon":     -64.8736,
     "mobile":     "false"
    },
    "2714":{
     "motusID":     451,
     "serialNo":     "SG-1614BBBK1660",
     "model":     "SENSORGNOME",
     "status":     "terminated",
     "name":     "Escuminac",
     "site":     "Escuminac",
     "depStart":     1447511400,
     "depEnd":     1460320200,
     "lat":     47.0794,
     "lon":     -64.8736,
     "mobile":     "false"
    },
    "2677":{
     "motusID":     452,
     "serialNo":     "SG-1614BBBK1662",
     "model":     "SENSORGNOME",
     "status":     "terminated",
     "name":     "Lockhartville",
     "site":     "Lockhartville",
     "depStart":     1448475660,
     "depEnd":     1460851200,
     "lat":     45.08413,
     "lon":     -64.21539,
     "mobile":     "false"
    },
    "2978":{
     "motusID":     452,
     "serialNo":     "SG-1614BBBK1662",
     "model":     "SENSORGNOME",
     "status":     "terminated",
     "name":     "Lockhartville",
     "site":     "Lockhartville",
     "depStart":     1460851260,
     "depEnd":     1468939200,
     "lat":     45.08413,
     "lon":     -64.21539,
     "mobile":     "false"
    },
    "695":{
     "motusID":     452,
     "serialNo":     "SG-1614BBBK1662",
     "model":     "SENSORGNOME",
     "status":     "terminated",
     "name":     "Lockhartville",
     "site":     "Lockhartville",
     "depStart":     1400544000,
     "depEnd":     1416528000,
     "lat":     45.08413,
     "lon":     -64.21539,
     "mobile":     "false"
    },
    "2202":{
     "motusID":     452,
     "serialNo":     "SG-1614BBBK1662",
     "model":     "SENSORGNOME",
     "status":     "terminated",
     "name":     "Lockhartville",
     "site":     "Lockhartville",
     "depStart":     1416528000,
     "depEnd":     1431638400,
     "lat":     45.08413,
     "lon":     -64.21539,
     "mobile":     "false"
    },
    "2203":{
     "motusID":     452,
     "serialNo":     "SG-1614BBBK1662",
     "model":     "SENSORGNOME",
     "status":     "terminated",
     "name":     "Lockhartville",
     "site":     "Lockhartville",
     "depStart":     1431638460,
     "depEnd":     1448475600,
     "lat":     45.08413,
     "lon":     -64.21539,
     "mobile":     "false"
    },
    "3922":{
     "motusID":     452,
     "serialNo":     "SG-1614BBBK1662",
     "model":     "SENSORGNOME",
     "status":     "terminated",
     "name":     "Lockhartville",
     "site":     "Lockhartville",
     "depStart":     1491856260,
     "depEnd":     1511015820,
     "lat":     45.0841,
     "lon":     -64.2154,
     "mobile":     "false"
    },
    "3288":{
     "motusID":     452,
     "serialNo":     "SG-1614BBBK1662",
     "model":     "SENSORGNOME",
     "status":     "terminated",
     "name":     "Lockhartville",
     "site":     "Lockhartville",
     "depStart":     1468939260,
     "depEnd":     1479830400,
     "lat":     45.08413,
     "lon":     -64.21539,
     "mobile":     "false"
    },
    "3648":{
     "motusID":     452,
     "serialNo":     "SG-1614BBBK1662",
     "model":     "SENSORGNOME",
     "status":     "terminated",
     "name":     "Lockhartville",
     "site":     "Lockhartville",
     "depStart":     1480615980,
     "depEnd":     1491856200,
     "lat":     45.08413,
     "lon":     -64.21539,
     "mobile":     "false"
    },
    "4580":{
     "motusID":     452,
     "serialNo":     "SG-1614BBBK1662",
     "model":     "SENSORGNOME",
     "status":     "terminated",
     "name":     "Lockhartville",
     "site":     "Lockhartville",
     "depStart":     1519422300,
     "depEnd":     1522962000,
     "lat":     45.0841,
     "lon":     -64.2154,
     "mobile":     "false"
    },
    "4581":{
     "motusID":     452,
     "serialNo":     "SG-1614BBBK1662",
     "model":     "SENSORGNOME",
     "status":     "active",
     "name":     "Lockhartville",
     "site":     "Lockhartville",
     "depStart":     1522962000,
     "depEnd":     "NA",
     "lat":     45.0841,
     "lon":     -64.2154,
     "mobile":     "false"
    },
    "4423":{
     "motusID":     452,
     "serialNo":     "SG-1614BBBK1662",
     "model":     "SENSORGNOME",
     "status":     "terminated",
     "name":     "Lockhartville",
     "site":     "Lockhartville",
     "depStart":     1511015820,
     "depEnd":     1519422300,
     "lat":     45.0841,
     "lon":     -64.2154,
     "mobile":     "false"
    },
    "4593":{
     "motusID":     453,
     "serialNo":     "SG-1614BBBK1663",
     "model":     "SENSORGNOME",
     "status":     "terminated",
     "name":     "Canso",
     "site":     "Canso",
     "depStart":     1523363400,
     "depEnd":     1534417200,
     "lat":     45.3195,
     "lon":     -60.9682,
     "mobile":     "false"
    },
    "3654":{
     "motusID":     453,
     "serialNo":     "SG-1614BBBK1663",
     "model":     "SENSORGNOME",
     "status":     "terminated",
     "name":     "Taylor Head",
     "site":     "Taylor Head",
     "depStart":     1480005720,
     "depEnd":     1499612100,
     "lat":     44.8057,
     "lon":     -62.5599,
     "mobile":     "false"
    },
    "3303":{
     "motusID":     453,
     "serialNo":     "SG-1614BBBK1663",
     "model":     "SENSORGNOME",
     "status":     "terminated",
     "name":     "Taylor Head",
     "site":     "Taylor Head",
     "depStart":     1468585800,
     "depEnd":     1480005720,
     "lat":     44.8057,
     "lon":     -62.5599,
     "mobile":     "false"
    },
    "2399":{
     "motusID":     453,
     "serialNo":     "SG-1614BBBK1663",
     "model":     "SENSORGNOME",
     "status":     "terminated",
     "name":     "Taylor Head",
     "site":     "Taylor Head",
     "depStart":     1436097600,
     "depEnd":     1461715200,
     "lat":     44.8057,
     "lon":     -62.5599,
     "mobile":     "false"
    },
    "690":{
     "motusID":     453,
     "serialNo":     "SG-1614BBBK1663",
     "model":     "SENSORGNOME",
     "status":     "terminated",
     "name":     "Taylor Head",
     "site":     "Taylor Head",
     "depStart":     1400284800,
     "depEnd":     1436097600,
     "lat":     44.8057,
     "lon":     -62.5599,
     "mobile":     "false"
    },
    "3042":{
     "motusID":     453,
     "serialNo":     "SG-1614BBBK1663",
     "model":     "SENSORGNOME",
     "status":     "terminated",
     "name":     "Taylor Head",
     "site":     "Taylor Head",
     "depStart":     1461715200,
     "depEnd":     1468585800,
     "lat":     44.8057,
     "lon":     -62.5599,
     "mobile":     "false"
    },
    "3014":{
     "motusID":     454,
     "serialNo":     "SG-1614BBBK1832",
     "model":     "SENSORGNOME",
     "status":     "terminated",
     "name":     "Marshalltown (Comeau)",
     "site":     "Marshalltown",
     "depStart":     1460999520,
     "depEnd":     1478434500,
     "lat":     44.5808,
     "lon":     -65.7928,
     "mobile":     "false"
    },
    "2699":{
     "motusID":     454,
     "serialNo":     "SG-1614BBBK1832",
     "model":     "SENSORGNOME",
     "status":     "terminated",
     "name":     "Comeau (Marshalltown)",
     "site":     "Comeau (Marshalltown",
     "depStart":     1448128800,
     "depEnd":     1460999520,
     "lat":     44.5808,
     "lon":     -65.7928,
     "mobile":     "false"
    },
    "2531":{
     "motusID":     454,
     "serialNo":     "SG-1614BBBK1832",
     "model":     "SENSORGNOME",
     "status":     "terminated",
     "name":     "Comeau (Marshalltown)",
     "site":     "Comeau (Marshalltown",
     "depStart":     1440887400,
     "depEnd":     1448128800,
     "lat":     44.5808,
     "lon":     -65.7928,
     "mobile":     "false"
    },
    "716":{
     "motusID":     454,
     "serialNo":     "SG-1614BBBK1832",
     "model":     "SENSORGNOME",
     "status":     "terminated",
     "name":     "Comeau (Marshalltown)",
     "site":     "Comeau (Marshalltown",
     "depStart":     1401667200,
     "depEnd":     1416528000,
     "lat":     44.5808,
     "lon":     -65.7928,
     "mobile":     "false"
    },
    "2207":{
     "motusID":     454,
     "serialNo":     "SG-1614BBBK1832",
     "model":     "SENSORGNOME",
     "status":     "terminated",
     "name":     "Comeau (Marshalltown)",
     "site":     "Comeau (Marshalltown",
     "depStart":     1416528000,
     "depEnd":     1431554400,
     "lat":     44.5808,
     "lon":     -65.7928,
     "mobile":     "false"
    },
    "2208":{
     "motusID":     454,
     "serialNo":     "SG-1614BBBK1832",
     "model":     "SENSORGNOME",
     "status":     "terminated",
     "name":     "Comeau (Marshalltown)",
     "site":     "Comeau (Marshalltown",
     "depStart":     1431554400,
     "depEnd":     1431993600,
     "lat":     44.5808,
     "lon":     -65.7928,
     "mobile":     "false"
    },
    "3563":{
     "motusID":     454,
     "serialNo":     "SG-1614BBBK1832",
     "model":     "SENSORGNOME",
     "status":     "terminated",
     "name":     "Marshalltown",
     "site":     "Marshalltown",
     "depStart":     1478434500,
     "depEnd":     1491744600,
     "lat":     44.5808,
     "lon":     -65.7928,
     "mobile":     "false"
    },
    "3913":{
     "motusID":     454,
     "serialNo":     "SG-1614BBBK1832",
     "model":     "SENSORGNOME",
     "status":     "terminated",
     "name":     "Marshalltown",
     "site":     "Marshalltown",
     "depStart":     1491744600,
     "depEnd":     1511117400,
     "lat":     44.5808,
     "lon":     -65.7928,
     "mobile":     "false"
    },
    "4763":{
     "motusID":     454,
     "serialNo":     "SG-1614BBBK1832",
     "model":     "SENSORGNOME",
     "status":     "terminated",
     "name":     "Marshalltown",
     "site":     "Marshalltown",
     "depStart":     1522862400,
     "depEnd":     1555074000,
     "lat":     44.5808,
     "lon":     -65.7928,
     "mobile":     "false"
    },
    "4422":{
     "motusID":     454,
     "serialNo":     "SG-1614BBBK1832",
     "model":     "SENSORGNOME",
     "status":     "terminated",
     "name":     "Marshalltown",
     "site":     "Marshalltown",
     "depStart":     1511117400,
     "depEnd":     1522862400,
     "lat":     44.5808,
     "lon":     -65.7928,
     "mobile":     "false"
    },
    "5202":{
     "motusID":     454,
     "serialNo":     "SG-1614BBBK1832",
     "model":     "SENSORGNOME",
     "status":     "active",
     "name":     "Marshalltown",
     "site":     "Marshalltown",
     "depStart":     1555074000,
     "depEnd":     "NA",
     "lat":     44.5808,
     "lon":     -65.7928,
     "mobile":     "false"
    },
    "4420":{
     "motusID":     455,
     "serialNo":     "SG-1614BBBK1869",
     "model":     "SENSORGNOME",
     "status":     "terminated",
     "name":     "Upper Clements",
     "site":     "Upper Clements",
     "depStart":     1511107500,
     "depEnd":     1522871700,
     "lat":     44.7219,
     "lon":     -65.5425,
     "mobile":     "false"
    },
    "4570":{
     "motusID":     455,
     "serialNo":     "SG-1614BBBK1869",
     "model":     "SENSORGNOME",
     "status":     "active",
     "name":     "Upper Clements",
     "site":     "Upper Clements",
     "depStart":     1522871700,
     "depEnd":     "NA",
     "lat":     44.7219,
     "lon":     -65.5425,
     "mobile":     "false"
    },
    "3917":{
     "motusID":     455,
     "serialNo":     "SG-1614BBBK1869",
     "model":     "SENSORGNOME",
     "status":     "terminated",
     "name":     "Upper Clements",
     "site":     "Upper Clements",
     "depStart":     1491828600,
     "depEnd":     1511107500,
     "lat":     44.7219,
     "lon":     -65.5425,
     "mobile":     "false"
    },
    "3565":{
     "motusID":     455,
     "serialNo":     "SG-1614BBBK1869",
     "model":     "SENSORGNOME",
     "status":     "terminated",
     "name":     "Upper Clements",
     "site":     "Upper Clements",
     "depStart":     1478443800,
     "depEnd":     1491828600,
     "lat":     44.7219,
     "lon":     -65.5425,
     "mobile":     "false"
    },
    "2211":{
     "motusID":     455,
     "serialNo":     "SG-1614BBBK1869",
     "model":     "SENSORGNOME",
     "status":     "terminated",
     "name":     "Northview (Upper Clements)",
     "site":     "Northview (Upper Cle",
     "depStart":     1416528000,
     "depEnd":     1431615000,
     "lat":     44.7219,
     "lon":     -65.5425,
     "mobile":     "false"
    },
    "2212":{
     "motusID":     455,
     "serialNo":     "SG-1614BBBK1869",
     "model":     "SENSORGNOME",
     "status":     "terminated",
     "name":     "Northview (Upper Clements)",
     "site":     "Northview (Upper Cle",
     "depStart":     1431615000,
     "depEnd":     1448120700,
     "lat":     44.7219,
     "lon":     -65.5425,
     "mobile":     "false"
    },
    "717":{
     "motusID":     455,
     "serialNo":     "SG-1614BBBK1869",
     "model":     "SENSORGNOME",
     "status":     "terminated",
     "name":     "Northview (Upper Clements)",
     "site":     "Northview (Upper Cle",
     "depStart":     1401667200,
     "depEnd":     1416528000,
     "lat":     44.7219,
     "lon":     -65.5425,
     "mobile":     "false"
    },
    "2697":{
     "motusID":     455,
     "serialNo":     "SG-1614BBBK1869",
     "model":     "SENSORGNOME",
     "status":     "terminated",
     "name":     "Northview (Upper Clements)",
     "site":     "Northview (Upper Cle",
     "depStart":     1448120700,
     "depEnd":     1460997000,
     "lat":     44.7219,
     "lon":     -65.5425,
     "mobile":     "false"
    },
    "3013":{
     "motusID":     455,
     "serialNo":     "SG-1614BBBK1869",
     "model":     "SENSORGNOME",
     "status":     "terminated",
     "name":     "Northview (Upper Clements)",
     "site":     "Northview (Upper Cle",
     "depStart":     1460997000,
     "depEnd":     1478443800,
     "lat":     44.7219,
     "lon":     -65.5425,
     "mobile":     "false"
    },
    "713":{
     "motusID":     456,
     "serialNo":     "SG-1614BBBK1870",
     "model":     "SENSORGNOME",
     "status":     "terminated",
     "name":     "Hampton",
     "site":     "Hampton",
     "depStart":     1401494400,
     "depEnd":     1416528000,
     "lat":     44.9058,
     "lon":     -65.3509,
     "mobile":     "false"
    },
    "2228":{
     "motusID":     456,
     "serialNo":     "SG-1614BBBK1870",
     "model":     "SENSORGNOME",
     "status":     "terminated",
     "name":     "Hampton",
     "site":     "Hampton",
     "depStart":     1416528000,
     "depEnd":     1431621000,
     "lat":     44.9058,
     "lon":     -65.3509,
     "mobile":     "false"
    },
    "2229":{
     "motusID":     456,
     "serialNo":     "SG-1614BBBK1870",
     "model":     "SENSORGNOME",
     "status":     "terminated",
     "name":     "Hampton",
     "site":     "Hampton",
     "depStart":     1431621000,
     "depEnd":     1443196800,
     "lat":     44.9058,
     "lon":     -65.3509,
     "mobile":     "false"
    },
    "4433":{
     "motusID":     456,
     "serialNo":     "SG-1614BBBK1870",
     "model":     "SENSORGNOME",
     "status":     "terminated",
     "name":     "Fundy Parkway",
     "site":     "Fundy Parkway",
     "depStart":     1510682100,
     "depEnd":     1533234600,
     "lat":     45.4325,
     "lon":     -65.404,
     "mobile":     "false"
    },
    "4164":{
     "motusID":     456,
     "serialNo":     "SG-1614BBBK1870",
     "model":     "SENSORGNOME",
     "status":     "terminated",
     "name":     "Fundy Parkway",
     "site":     "Fundy Parkway",
     "depStart":     1500309540,
     "depEnd":     1510682100,
     "lat":     45.4325,
     "lon":     -65.404,
     "mobile":     "false"
    },
    "5598":{
     "motusID":     456,
     "serialNo":     "SG-1614BBBK1870",
     "model":     "SENSORGNOME",
     "status":     "active",
     "name":     "Fundy Parkway",
     "site":     "Fundy Parkway",
     "depStart":     1533234600,
     "depEnd":     "NA",
     "lat":     45.4325,
     "lon":     -65.404,
     "mobile":     "false"
    },
    "4408":{
     "motusID":     457,
     "serialNo":     "SG-1614BBBK1880",
     "model":     "SENSORGNOME",
     "status":     "terminated",
     "name":     "Baccaro",
     "site":     "Baccaro",
     "depStart":     1511281800,
     "depEnd":     1517054400,
     "lat":     43.4596,
     "lon":     -65.4815,
     "mobile":     "false"
    },
    "4765":{
     "motusID":     457,
     "serialNo":     "SG-1614BBBK1880",
     "model":     "SENSORGNOME",
     "status":     "active",
     "name":     "Baccaro",
     "site":     "Baccaro",
     "depStart":     1517054400,
     "depEnd":     "NA",
     "lat":     43.4596,
     "lon":     -65.4815,
     "mobile":     "false"
    },
    "3664":{
     "motusID":     457,
     "serialNo":     "SG-1614BBBK1880",
     "model":     "SENSORGNOME",
     "status":     "terminated",
     "name":     "Baccaro",
     "site":     "Baccaro",
     "depStart":     1480517400,
     "depEnd":     1491662700,
     "lat":     43.45959,
     "lon":     -65.48149,
     "mobile":     "false"
    },
    "3908":{
     "motusID":     457,
     "serialNo":     "SG-1614BBBK1880",
     "model":     "SENSORGNOME",
     "status":     "terminated",
     "name":     "Baccaro",
     "site":     "Baccaro",
     "depStart":     1491662700,
     "depEnd":     1511281800,
     "lat":     43.4596,
     "lon":     -65.4815,
     "mobile":     "false"
    },
    "2253":{
     "motusID":     457,
     "serialNo":     "SG-1614BBBK1880",
     "model":     "SENSORGNOME",
     "status":     "terminated",
     "name":     "Baccaro",
     "site":     "Baccaro",
     "depStart":     1416441600,
     "depEnd":     1432413900,
     "lat":     43.45959,
     "lon":     -65.48149,
     "mobile":     "false"
    },
    "2266":{
     "motusID":     457,
     "serialNo":     "SG-1614BBBK1880",
     "model":     "SENSORGNOME",
     "status":     "terminated",
     "name":     "Baccaro",
     "site":     "Baccaro",
     "depStart":     1432413900,
     "depEnd":     1448312400,
     "lat":     43.45959,
     "lon":     -65.48149,
     "mobile":     "false"
    },
    "721":{
     "motusID":     457,
     "serialNo":     "SG-1614BBBK1880",
     "model":     "SENSORGNOME",
     "status":     "terminated",
     "name":     "Baccaro",
     "site":     "Baccaro",
     "depStart":     1402012800,
     "depEnd":     1416441600,
     "lat":     43.45959,
     "lon":     -65.48149,
     "mobile":     "false"
    },
    "2937":{
     "motusID":     457,
     "serialNo":     "SG-1614BBBK1880",
     "model":     "SENSORGNOME",
     "status":     "terminated",
     "name":     "Baccaro",
     "site":     "Baccaro",
     "depStart":     1457299800,
     "depEnd":     1480517400,
     "lat":     43.45959,
     "lon":     -65.48149,
     "mobile":     "false"
    },
    "2692":{
     "motusID":     457,
     "serialNo":     "SG-1614BBBK1880",
     "model":     "SENSORGNOME",
     "status":     "terminated",
     "name":     "Baccaro",
     "site":     "Baccaro",
     "depStart":     1448312400,
     "depEnd":     1457299800,
     "lat":     43.45959,
     "lon":     -65.48149,
     "mobile":     "false"
    },
    "712":{
     "motusID":     458,
     "serialNo":     "SG-1614BBBK1883",
     "model":     "SENSORGNOME",
     "status":     "terminated",
     "name":     "Port George",
     "site":     "Port George",
     "depStart":     1401494400,
     "depEnd":     1416528000,
     "lat":     45.0051,
     "lon":     -65.1185,
     "mobile":     "false"
    },
    "2233":{
     "motusID":     458,
     "serialNo":     "SG-1614BBBK1883",
     "model":     "SENSORGNOME",
     "status":     "terminated",
     "name":     "Port George",
     "site":     "Port George",
     "depStart":     1416528000,
     "depEnd":     1431624600,
     "lat":     45.0051,
     "lon":     -65.1185,
     "mobile":     "false"
    },
    "2234":{
     "motusID":     458,
     "serialNo":     "SG-1614BBBK1883",
     "model":     "SENSORGNOME",
     "status":     "terminated",
     "name":     "Port George",
     "site":     "Port George",
     "depStart":     1431624600,
     "depEnd":     1440849600,
     "lat":     45.0051,
     "lon":     -65.1185,
     "mobile":     "false"
    },
    "2235":{
     "motusID":     459,
     "serialNo":     "SG-1614BBBK1900",
     "model":     "SENSORGNOME",
     "status":     "terminated",
     "name":     "Brier Island",
     "site":     "Brier Island",
     "depStart":     1416528000,
     "depEnd":     1431602400,
     "lat":     44.2754,
     "lon":     -66.3493,
     "mobile":     "false"
    },
    "2236":{
     "motusID":     459,
     "serialNo":     "SG-1614BBBK1900",
     "model":     "SENSORGNOME",
     "status":     "terminated",
     "name":     "Brier Island",
     "site":     "Brier Island",
     "depStart":     1431602400,
     "depEnd":     1437993600,
     "lat":     44.2754,
     "lon":     -66.3493,
     "mobile":     "false"
    },
    "715":{
     "motusID":     459,
     "serialNo":     "SG-1614BBBK1900",
     "model":     "SENSORGNOME",
     "status":     "terminated",
     "name":     "Brier Island",
     "site":     "Brier Island",
     "depStart":     1401580800,
     "depEnd":     1416528000,
     "lat":     44.2754,
     "lon":     -66.3493,
     "mobile":     "false"
    },
    "4165":{
     "motusID":     459,
     "serialNo":     "SG-1614BBBK1900",
     "model":     "SENSORGNOME",
     "status":     "terminated",
     "name":     "Irving St. John",
     "site":     "Irving St. John",
     "depStart":     1494424800,
     "depEnd":     1507593600,
     "lat":     45.2256,
     "lon":     -66.1125,
     "mobile":     "false"
    },
    "3571":{
     "motusID":     460,
     "serialNo":     "SG-1614BBBK1911",
     "model":     "SENSORGNOME",
     "status":     "terminated",
     "name":     "Point Lepreau",
     "site":     "Point Lepreau",
     "depStart":     1478861400,
     "depEnd":     1494433800,
     "lat":     45.0585,
     "lon":     -66.4583,
     "mobile":     "false"
    },
    "726":{
     "motusID":     460,
     "serialNo":     "SG-1614BBBK1911",
     "model":     "SENSORGNOME",
     "status":     "terminated",
     "name":     "Point Lepreau",
     "site":     "Point Lepreau",
     "depStart":     1402444800,
     "depEnd":     1418169600,
     "lat":     45.0585,
     "lon":     -66.4583,
     "mobile":     "false"
    },
    "2254":{
     "motusID":     460,
     "serialNo":     "SG-1614BBBK1911",
     "model":     "SENSORGNOME",
     "status":     "terminated",
     "name":     "Point Lepreau",
     "site":     "Point Lepreau",
     "depStart":     1418169600,
     "depEnd":     1432919700,
     "lat":     45.0585,
     "lon":     -66.4583,
     "mobile":     "false"
    },
    "2283":{
     "motusID":     460,
     "serialNo":     "SG-1614BBBK1911",
     "model":     "SENSORGNOME",
     "status":     "terminated",
     "name":     "Point Lepreau",
     "site":     "Point Lepreau",
     "depStart":     1432919700,
     "depEnd":     1448991000,
     "lat":     45.0585,
     "lon":     -66.4583,
     "mobile":     "false"
    },
    "2671":{
     "motusID":     460,
     "serialNo":     "SG-1614BBBK1911",
     "model":     "SENSORGNOME",
     "status":     "terminated",
     "name":     "Point Lepreau",
     "site":     "Point Lepreau",
     "depStart":     1448991000,
     "depEnd":     1460388600,
     "lat":     45.0585,
     "lon":     -66.4583,
     "mobile":     "false"
    },
    "2967":{
     "motusID":     460,
     "serialNo":     "SG-1614BBBK1911",
     "model":     "SENSORGNOME",
     "status":     "terminated",
     "name":     "Point Lepreau",
     "site":     "Point Lepreau",
     "depStart":     1460388600,
     "depEnd":     1467904620,
     "lat":     45.0585,
     "lon":     -66.4583,
     "mobile":     "false"
    },
    "3251":{
     "motusID":     460,
     "serialNo":     "SG-1614BBBK1911",
     "model":     "SENSORGNOME",
     "status":     "terminated",
     "name":     "Point Lepreau",
     "site":     "Point Lepreau",
     "depStart":     1467904620,
     "depEnd":     1478861400,
     "lat":     45.0585,
     "lon":     -66.4583,
     "mobile":     "false"
    },
    "5363":{
     "motusID":     460,
     "serialNo":     "SG-1614BBBK1911",
     "model":     "SENSORGNOME",
     "status":     "active",
     "name":     "Kent Island",
     "site":     "Kent Island",
     "depStart":     1561649400,
     "depEnd":     "NA",
     "lat":     44.5814,
     "lon":     -66.7554,
     "mobile":     "false"
    },
    "5177":{
     "motusID":     461,
     "serialNo":     "SG-1614BBBK1916",
     "model":     "SENSORGNOME",
     "status":     "terminated",
     "name":     "Sonora",
     "site":     "Sonora",
     "depStart":     1554231600,
     "depEnd":     1567857600,
     "lat":     45.0546,
     "lon":     -61.8957,
     "mobile":     "false"
    },
    "5632":{
     "motusID":     461,
     "serialNo":     "SG-1614BBBK1916",
     "model":     "SENSORGNOME",
     "status":     "active",
     "name":     "Sonora",
     "site":     "Sonora",
     "depStart":     1568397600,
     "depEnd":     "NA",
     "lat":     45.0546,
     "lon":     -61.8957,
     "mobile":     "false"
    },
    "2694":{
     "motusID":     461,
     "serialNo":     "SG-1614BBBK1916",
     "model":     "SENSORGNOME",
     "status":     "terminated",
     "name":     "Port Maitland",
     "site":     "Port Maitland",
     "depStart":     1448218800,
     "depEnd":     1461085200,
     "lat":     43.98589,
     "lon":     -66.15264,
     "mobile":     "false"
    },
    "2238":{
     "motusID":     461,
     "serialNo":     "SG-1614BBBK1916",
     "model":     "SENSORGNOME",
     "status":     "terminated",
     "name":     "Port Maitland",
     "site":     "Port Maitland",
     "depStart":     1416441600,
     "depEnd":     1431549900,
     "lat":     43.98589,
     "lon":     -66.15264,
     "mobile":     "false"
    },
    "2239":{
     "motusID":     461,
     "serialNo":     "SG-1614BBBK1916",
     "model":     "SENSORGNOME",
     "status":     "terminated",
     "name":     "Port Maitland",
     "site":     "Port Maitland",
     "depStart":     1431549900,
     "depEnd":     1448218800,
     "lat":     43.98589,
     "lon":     -66.15264,
     "mobile":     "false"
    },
    "719":{
     "motusID":     461,
     "serialNo":     "SG-1614BBBK1916",
     "model":     "SENSORGNOME",
     "status":     "terminated",
     "name":     "Port Maitland",
     "site":     "Port Maitland",
     "depStart":     1401926400,
     "depEnd":     1416441600,
     "lat":     43.98589,
     "lon":     -66.15264,
     "mobile":     "false"
    },
    "4167":{
     "motusID":     461,
     "serialNo":     "SG-1614BBBK1916",
     "model":     "SENSORGNOME",
     "status":     "terminated",
     "name":     "Sonora",
     "site":     "Sonora",
     "depStart":     1493892240,
     "depEnd":     1554220800,
     "lat":     45.0546,
     "lon":     -61.8957,
     "mobile":     "false"
    },
    "689":{
     "motusID":     462,
     "serialNo":     "SG-1614BBBK1919",
     "model":     "SENSORGNOME",
     "status":     "terminated",
     "name":     "Clam Bay",
     "site":     "Clam Bay",
     "depStart":     1400284800,
     "depEnd":     1436112000,
     "lat":     44.72838,
     "lon":     -62.92379,
     "mobile":     "false"
    },
    "2400":{
     "motusID":     462,
     "serialNo":     "SG-1614BBBK1919",
     "model":     "SENSORGNOME",
     "status":     "terminated",
     "name":     "Clam Bay",
     "site":     "Clam Bay",
     "depStart":     1436112000,
     "depEnd":     1447791300,
     "lat":     44.72838,
     "lon":     -62.92379,
     "mobile":     "false"
    },
    "2709":{
     "motusID":     462,
     "serialNo":     "SG-1614BBBK1919",
     "model":     "SENSORGNOME",
     "status":     "terminated",
     "name":     "Clam Bay",
     "site":     "Clam Bay",
     "depStart":     1447791300,
     "depEnd":     1456857900,
     "lat":     44.72838,
     "lon":     -62.92379,
     "mobile":     "false"
    },
    "3041":{
     "motusID":     462,
     "serialNo":     "SG-1614BBBK1919",
     "model":     "SENSORGNOME",
     "status":     "active",
     "name":     "Clam Bay",
     "site":     "Clam Bay",
     "depStart":     1461715200,
     "depEnd":     "NA",
     "lat":     44.7284,
     "lon":     -62.9238,
     "mobile":     "false"
    },
    "2927":{
     "motusID":     462,
     "serialNo":     "SG-1614BBBK1919",
     "model":     "SENSORGNOME",
     "status":     "terminated",
     "name":     "Clam Bay",
     "site":     "Clam Bay",
     "depStart":     1456857900,
     "depEnd":     1461715200,
     "lat":     44.72838,
     "lon":     -62.92379,
     "mobile":     "false"
    },
    "2928":{
     "motusID":     463,
     "serialNo":     "SG-1614BBBK1923",
     "model":     "SENSORGNOME",
     "status":     "active",
     "name":     "Eagle Head/West Berlin",
     "site":     "Eagle Head/West Berl",
     "depStart":     1458660600,
     "depEnd":     "NA",
     "lat":     44.0657,
     "lon":     -64.6075,
     "mobile":     "false"
    },
    "2688":{
     "motusID":     463,
     "serialNo":     "SG-1614BBBK1923",
     "model":     "SENSORGNOME",
     "status":     "terminated",
     "name":     "Eagle Head/West Berlin",
     "site":     "Eagle Head/West Berl",
     "depStart":     1448393400,
     "depEnd":     1456938000,
     "lat":     44.0657,
     "lon":     -64.6075,
     "mobile":     "false"
    },
    "2267":{
     "motusID":     463,
     "serialNo":     "SG-1614BBBK1923",
     "model":     "SENSORGNOME",
     "status":     "terminated",
     "name":     "Eagle Head/West Berlin",
     "site":     "Eagle Head/West Berl",
     "depStart":     1416441600,
     "depEnd":     1432378800,
     "lat":     44.0657,
     "lon":     -64.6075,
     "mobile":     "false"
    },
    "2268":{
     "motusID":     463,
     "serialNo":     "SG-1614BBBK1923",
     "model":     "SENSORGNOME",
     "status":     "terminated",
     "name":     "Eagle Head/West Berlin",
     "site":     "Eagle Head/West Berl",
     "depStart":     1432378800,
     "depEnd":     1448393400,
     "lat":     44.0657,
     "lon":     -64.6075,
     "mobile":     "false"
    },
    "707":{
     "motusID":     463,
     "serialNo":     "SG-1614BBBK1923",
     "model":     "SENSORGNOME",
     "status":     "terminated",
     "name":     "Eagle Head / West Berlin",
     "site":     "Eagle Head/West Berl",
     "depStart":     1401235200,
     "depEnd":     1416441600,
     "lat":     44.0657,
     "lon":     -64.6075,
     "mobile":     "false"
    },
    "697":{
     "motusID":     464,
     "serialNo":     "SG-1614BBBK1925",
     "model":     "SENSORGNOME",
     "status":     "terminated",
     "name":     "Gardner Creek",
     "site":     "Gardner Creek",
     "depStart":     1402012800,
     "depEnd":     1418083200,
     "lat":     45.26046,
     "lon":     -65.74289,
     "mobile":     "false"
    },
    "2256":{
     "motusID":     464,
     "serialNo":     "SG-1614BBBK1925",
     "model":     "SENSORGNOME",
     "status":     "terminated",
     "name":     "Gardner Creek",
     "site":     "Gardner Creek",
     "depStart":     1418083200,
     "depEnd":     1432933200,
     "lat":     45.26046,
     "lon":     -65.74289,
     "mobile":     "false"
    },
    "2284":{
     "motusID":     464,
     "serialNo":     "SG-1614BBBK1925",
     "model":     "SENSORGNOME",
     "status":     "terminated",
     "name":     "Gardner Creek",
     "site":     "Gardner Creek",
     "depStart":     1432933200,
     "depEnd":     1447350000,
     "lat":     45.26046,
     "lon":     -65.74289,
     "mobile":     "false"
    },
    "4614":{
     "motusID":     464,
     "serialNo":     "SG-1614BBBK1925",
     "model":     "SENSORGNOME",
     "status":     "terminated",
     "name":     "motusTest",
     "site":     "Motus Test",
     "depStart":     1399939200,
     "depEnd":     1400025540,
     "lat":     "NA",
     "lon":     "NA",
     "mobile":     "true"
    },
    "4606":{
     "motusID":     465,
     "serialNo":     "SG-1614BBBK1954",
     "model":     "SENSORGNOME",
     "status":     "terminated",
     "name":     "Cape Forchu",
     "site":     "Cape Forchu",
     "depStart":     1518633000,
     "depEnd":     1555024800,
     "lat":     43.7952,
     "lon":     -66.1556,
     "mobile":     "false"
    },
    "4411":{
     "motusID":     465,
     "serialNo":     "SG-1614BBBK1954",
     "model":     "SENSORGNOME",
     "status":     "terminated",
     "name":     "KB-Mobile",
     "site":     "",
     "depStart":     1504483260,
     "depEnd":     1518609600,
     "lat":     "NA",
     "lon":     "NA",
     "mobile":     "true"
    },
    "3667":{
     "motusID":     465,
     "serialNo":     "SG-1614BBBK1954",
     "model":     "SENSORGNOME",
     "status":     "terminated",
     "name":     "Matthew's Lake",
     "site":     "Matthew's Lake",
     "depStart":     1480532100,
     "depEnd":     1491648600,
     "lat":     43.6993,
     "lon":     -65.0284,
     "mobile":     "false"
    },
    "3307":{
     "motusID":     465,
     "serialNo":     "SG-1614BBBK1954",
     "model":     "SENSORGNOME",
     "status":     "terminated",
     "name":     "Matthew's Lake",
     "site":     "Matthew's Lake",
     "depStart":     1444935600,
     "depEnd":     1448383500,
     "lat":     43.6993,
     "lon":     -65.0284,
     "mobile":     "false"
    },
    "3308":{
     "motusID":     465,
     "serialNo":     "SG-1614BBBK1954",
     "model":     "SENSORGNOME",
     "status":     "terminated",
     "name":     "Matthew's Lake",
     "site":     "Matthew's Lake",
     "depStart":     1448383500,
     "depEnd":     1457283600,
     "lat":     43.6993,
     "lon":     -65.0284,
     "mobile":     "false"
    },
    "3309":{
     "motusID":     465,
     "serialNo":     "SG-1614BBBK1954",
     "model":     "SENSORGNOME",
     "status":     "terminated",
     "name":     "Matthew's Lake",
     "site":     "Matthew's Lake",
     "depStart":     1457283600,
     "depEnd":     1480532100,
     "lat":     43.6993,
     "lon":     -65.0284,
     "mobile":     "false"
    },
    "3905":{
     "motusID":     465,
     "serialNo":     "SG-1614BBBK1954",
     "model":     "SENSORGNOME",
     "status":     "terminated",
     "name":     "Matthew's Lake",
     "site":     "Matthew's Lake",
     "depStart":     1491648600,
     "depEnd":     1504483200,
     "lat":     43.6993,
     "lon":     -65.0284,
     "mobile":     "false"
    },
    "2240":{
     "motusID":     465,
     "serialNo":     "SG-1614BBBK1954",
     "model":     "SENSORGNOME",
     "status":     "terminated",
     "name":     "Pubnico",
     "site":     "Pubnico",
     "depStart":     1416441600,
     "depEnd":     1431536400,
     "lat":     43.65431,
     "lon":     -65.76283,
     "mobile":     "false"
    },
    "2241":{
     "motusID":     465,
     "serialNo":     "SG-1614BBBK1954",
     "model":     "SENSORGNOME",
     "status":     "terminated",
     "name":     "Pubnico",
     "site":     "Pubnico",
     "depStart":     1431536400,
     "depEnd":     1443598200,
     "lat":     43.65431,
     "lon":     -65.76283,
     "mobile":     "false"
    },
    "720":{
     "motusID":     465,
     "serialNo":     "SG-1614BBBK1954",
     "model":     "SENSORGNOME",
     "status":     "terminated",
     "name":     "Pubnico",
     "site":     "Pubnico",
     "depStart":     1401926400,
     "depEnd":     1416441600,
     "lat":     43.65431,
     "lon":     -65.76283,
     "mobile":     "false"
    },
    "3125":{
     "motusID":     465,
     "serialNo":     "SG-1614BBBK1954",
     "model":     "SENSORGNOME",
     "status":     "terminated",
     "name":     "Pubnico",
     "site":     "Pubnico",
     "depStart":     1443600000,
     "depEnd":     1444867200,
     "lat":     43.65431,
     "lon":     -65.76283,
     "mobile":     "false"
    },
    "5200":{
     "motusID":     465,
     "serialNo":     "SG-1614BBBK1954",
     "model":     "SENSORGNOME",
     "status":     "terminated",
     "name":     "Cape Forchu",
     "site":     "Cape Forchu",
     "depStart":     1555024860,
     "depEnd":     1555024920,
     "lat":     43.7952,
     "lon":     -66.1556,
     "mobile":     "false"
    },
    "2933":{
     "motusID":     466,
     "serialNo":     "SG-1614BBBK1956",
     "model":     "SENSORGNOME",
     "status":     "terminated",
     "name":     "West Quoddy",
     "site":     "West Quoddy",
     "depStart":     1457042400,
     "depEnd":     1461785400,
     "lat":     44.91329,
     "lon":     -62.34741,
     "mobile":     "false"
    },
    "3044":{
     "motusID":     466,
     "serialNo":     "SG-1614BBBK1956",
     "model":     "SENSORGNOME",
     "status":     "terminated",
     "name":     "West Quoddy",
     "site":     "West Quoddy",
     "depStart":     1461785400,
     "depEnd":     1480003440,
     "lat":     44.91329,
     "lon":     -62.34741,
     "mobile":     "false"
    },
    "2705":{
     "motusID":     466,
     "serialNo":     "SG-1614BBBK1956",
     "model":     "SENSORGNOME",
     "status":     "terminated",
     "name":     "West Quoddy",
     "site":     "West Quoddy",
     "depStart":     1447853400,
     "depEnd":     1457042400,
     "lat":     44.91329,
     "lon":     -62.34741,
     "mobile":     "false"
    },
    "2398":{
     "motusID":     466,
     "serialNo":     "SG-1614BBBK1956",
     "model":     "SENSORGNOME",
     "status":     "terminated",
     "name":     "West Quoddy",
     "site":     "West Quoddy",
     "depStart":     1436047200,
     "depEnd":     1447853400,
     "lat":     44.91329,
     "lon":     -62.34741,
     "mobile":     "false"
    },
    "691":{
     "motusID":     466,
     "serialNo":     "SG-1614BBBK1956",
     "model":     "SENSORGNOME",
     "status":     "terminated",
     "name":     "West Quoddy",
     "site":     "West Quoddy",
     "depStart":     1400371200,
     "depEnd":     1436047200,
     "lat":     44.91329,
     "lon":     -62.34741,
     "mobile":     "false"
    },
    "3977":{
     "motusID":     466,
     "serialNo":     "SG-1614BBBK1956",
     "model":     "SENSORGNOME",
     "status":     "terminated",
     "name":     "West Quoddy",
     "site":     "West Quoddy",
     "depStart":     1493743980,
     "depEnd":     1510423200,
     "lat":     44.9133,
     "lon":     -62.3474,
     "mobile":     "false"
    },
    "3653":{
     "motusID":     466,
     "serialNo":     "SG-1614BBBK1956",
     "model":     "SENSORGNOME",
     "status":     "terminated",
     "name":     "West Quoddy",
     "site":     "West Quoddy",
     "depStart":     1480003440,
     "depEnd":     1493743980,
     "lat":     44.9133,
     "lon":     -62.3474,
     "mobile":     "false"
    },
    "4441":{
     "motusID":     466,
     "serialNo":     "SG-1614BBBK1956",
     "model":     "SENSORGNOME",
     "status":     "terminated",
     "name":     "West Quoddy",
     "site":     "West Quoddy",
     "depStart":     1510423200,
     "depEnd":     1519152900,
     "lat":     44.9133,
     "lon":     -62.3474,
     "mobile":     "false"
    },
    "4442":{
     "motusID":     467,
     "serialNo":     "SG-1614BBBK1611",
     "model":     "SENSORGNOME",
     "status":     "terminated",
     "name":     "Cape Jourimain",
     "site":     "Cape Jourimain",
     "depStart":     1510152600,
     "depEnd":     1529780160,
     "lat":     46.1655,
     "lon":     -63.8253,
     "mobile":     "false"
    },
    "4751":{
     "motusID":     467,
     "serialNo":     "SG-1614BBBK1611",
     "model":     "SENSORGNOME",
     "status":     "terminated",
     "name":     "Cape Jourimain",
     "site":     "Cape Jourimain",
     "depStart":     1529953200,
     "depEnd":     1543935600,
     "lat":     46.1501,
     "lon":     -63.8421,
     "mobile":     "false"
    },
    "3628":{
     "motusID":     467,
     "serialNo":     "SG-1614BBBK1611",
     "model":     "SENSORGNOME",
     "status":     "terminated",
     "name":     "Cape Jourimain",
     "site":     "Cape Jourimain",
     "depStart":     1479037800,
     "depEnd":     1482364800,
     "lat":     46.1647,
     "lon":     -63.826,
     "mobile":     "false"
    },
    "4055":{
     "motusID":     467,
     "serialNo":     "SG-1614BBBK1611",
     "model":     "SENSORGNOME",
     "status":     "terminated",
     "name":     "Cape Jourimain",
     "site":     "Cape Jourimain",
     "depStart":     1494277200,
     "depEnd":     1510152600,
     "lat":     46.1655,
     "lon":     -63.8253,
     "mobile":     "false"
    },
    "700":{
     "motusID":     467,
     "serialNo":     "SG-1614BBBK1611",
     "model":     "SENSORGNOME",
     "status":     "terminated",
     "name":     "Cap Pele",
     "site":     "Cap Pele",
     "depStart":     1400803200,
     "depEnd":     1431302400,
     "lat":     46.2307,
     "lon":     -64.2965,
     "mobile":     "false"
    },
    "2323":{
     "motusID":     467,
     "serialNo":     "SG-1614BBBK1611",
     "model":     "SENSORGNOME",
     "status":     "terminated",
     "name":     "Cap Pele",
     "site":     "Cap Pele",
     "depStart":     1433790000,
     "depEnd":     1467039600,
     "lat":     46.2307,
     "lon":     -64.2965,
     "mobile":     "false"
    },
    "5626":{
     "motusID":     467,
     "serialNo":     "SG-1614BBBK1611",
     "model":     "SENSORGNOME",
     "status":     "pending",
     "name":     "Cape Jourimain",
     "site":     "Cape Jourimain",
     "depStart":     "NA",
     "depEnd":     "NA",
     "lat":     46.1501,
     "lon":     -63.8421,
     "mobile":     "false"
    },
    "2269":{
     "motusID":     468,
     "serialNo":     "SG-4000BBBK9210",
     "model":     "SENSORGNOME",
     "status":     "active",
     "name":     "Fundy NP",
     "site":     "Fundy NP",
     "depStart":     1432233900,
     "depEnd":     "NA",
     "lat":     45.5922,
     "lon":     -64.9944,
     "mobile":     "false"
    },
    "698":{
     "motusID":     468,
     "serialNo":     "SG-4000BBBK9210",
     "model":     "SENSORGNOME",
     "status":     "terminated",
     "name":     "Fundy NP",
     "site":     "Fundy NP",
     "depStart":     1412696700,
     "depEnd":     1418083200,
     "lat":     45.592216,
     "lon":     -64.994403,
     "mobile":     "false"
    },
    "699":{
     "motusID":     469,
     "serialNo":     "SG-4001BBBK1460",
     "model":     "SENSORGNOME",
     "status":     "terminated",
     "name":     "Cape Enrage",
     "site":     "Cape Enrage",
     "depStart":     1412682720,
     "depEnd":     1418083200,
     "lat":     45.595221,
     "lon":     -64.780578,
     "mobile":     "false"
    },
    "718":{
     "motusID":     470,
     "serialNo":     "SG-4005BBBK2390",
     "model":     "SENSORGNOME",
     "status":     "terminated",
     "name":     "Black Rock",
     "site":     "Black Rock",
     "depStart":     1412899200,
     "depEnd":     1416528000,
     "lat":     45.14492,
     "lon":     -64.74385,
     "mobile":     "false"
    },
    "2242":{
     "motusID":     470,
     "serialNo":     "SG-4005BBBK2390",
     "model":     "SENSORGNOME",
     "status":     "terminated",
     "name":     "Black Rock",
     "site":     "Black Rock",
     "depStart":     1416528000,
     "depEnd":     1431629100,
     "lat":     45.14492,
     "lon":     -64.74385,
     "mobile":     "false"
    },
    "2243":{
     "motusID":     470,
     "serialNo":     "SG-4005BBBK2390",
     "model":     "SENSORGNOME",
     "status":     "terminated",
     "name":     "Black Rock",
     "site":     "Black Rock",
     "depStart":     1431629100,
     "depEnd":     1448550900,
     "lat":     45.14492,
     "lon":     -64.74385,
     "mobile":     "false"
    },
    "2672":{
     "motusID":     470,
     "serialNo":     "SG-4005BBBK2390",
     "model":     "SENSORGNOME",
     "status":     "terminated",
     "name":     "Black Rock",
     "site":     "Black Rock",
     "depStart":     1448550900,
     "depEnd":     1460930400,
     "lat":     45.14492,
     "lon":     -64.74385,
     "mobile":     "false"
    },
    "2675":{
     "motusID":     471,
     "serialNo":     "SG-4002BBBK1530",
     "model":     "SENSORGNOME",
     "status":     "terminated",
     "name":     "Blandford",
     "site":     "Blandford",
     "depStart":     1448461800,
     "depEnd":     1456948800,
     "lat":     44.48344,
     "lon":     -64.10708,
     "mobile":     "false"
    },
    "2932":{
     "motusID":     471,
     "serialNo":     "SG-4002BBBK1530",
     "model":     "SENSORGNOME",
     "status":     "terminated",
     "name":     "Blandford",
     "site":     "Blandford",
     "depStart":     1456948800,
     "depEnd":     1459936800,
     "lat":     44.48344,
     "lon":     -64.10708,
     "mobile":     "false"
    },
    "2257":{
     "motusID":     471,
     "serialNo":     "SG-4002BBBK1530",
     "model":     "SENSORGNOME",
     "status":     "terminated",
     "name":     "Blandford",
     "site":     "Blandford",
     "depStart":     1416355200,
     "depEnd":     1432326600,
     "lat":     44.48344,
     "lon":     -64.10708,
     "mobile":     "false"
    },
    "2272":{
     "motusID":     471,
     "serialNo":     "SG-4002BBBK1530",
     "model":     "SENSORGNOME",
     "status":     "terminated",
     "name":     "Blandford",
     "site":     "Blandford",
     "depStart":     1432326600,
     "depEnd":     1448461800,
     "lat":     44.48344,
     "lon":     -64.10708,
     "mobile":     "false"
    },
    "722":{
     "motusID":     471,
     "serialNo":     "SG-4002BBBK1530",
     "model":     "SENSORGNOME",
     "status":     "terminated",
     "name":     "Blandford",
     "site":     "Blandford",
     "depStart":     1412256600,
     "depEnd":     1416355200,
     "lat":     44.48344,
     "lon":     -64.10708,
     "mobile":     "false"
    },
    "4770":{
     "motusID":     471,
     "serialNo":     "SG-4002BBBK1530",
     "model":     "SENSORGNOME",
     "status":     "active",
     "name":     "Prospect 3",
     "site":     "Prospect",
     "depStart":     1522686000,
     "depEnd":     "NA",
     "lat":     44.4745,
     "lon":     -63.794,
     "mobile":     "false"
    },
    "4171":{
     "motusID":     471,
     "serialNo":     "SG-4002BBBK1530",
     "model":     "SENSORGNOME",
     "status":     "terminated",
     "name":     "Prospect 3",
     "site":     "Prospect",
     "depStart":     1460129400,
     "depEnd":     1461595080,
     "lat":     44.4745,
     "lon":     -63.7938,
     "mobile":     "false"
    },
    "4172":{
     "motusID":     471,
     "serialNo":     "SG-4002BBBK1530",
     "model":     "SENSORGNOME",
     "status":     "terminated",
     "name":     "Prospect 3",
     "site":     "Prospect",
     "depStart":     1461595080,
     "depEnd":     1522686000,
     "lat":     44.4745,
     "lon":     -63.794,
     "mobile":     "false"
    },
    "727":{
     "motusID":     472,
     "serialNo":     "SG-4001BBBK2500",
     "model":     "SENSORGNOME",
     "status":     "terminated",
     "name":     "Fundy Parkway",
     "site":     "Fundy Parkway",
     "depStart":     1432221600,
     "depEnd":     1447340400,
     "lat":     45.43253,
     "lon":     -65.40401,
     "mobile":     "false"
    },
    "3068":{
     "motusID":     472,
     "serialNo":     "SG-4001BBBK2500",
     "model":     "SENSORGNOME",
     "status":     "terminated",
     "name":     "Fundy Parkway",
     "site":     "Fundy Parkway",
     "depStart":     1462890600,
     "depEnd":     1500309000,
     "lat":     45.4325,
     "lon":     -65.404,
     "mobile":     "false"
    },
    "2716":{
     "motusID":     472,
     "serialNo":     "SG-4001BBBK2500",
     "model":     "SENSORGNOME",
     "status":     "terminated",
     "name":     "Fundy Parkway",
     "site":     "Fundy Parkway",
     "depStart":     1447340400,
     "depEnd":     1462890600,
     "lat":     45.43253,
     "lon":     -65.40401,
     "mobile":     "false"
    },
    "2710":{
     "motusID":     473,
     "serialNo":     "SG-4001BBBK2720",
     "model":     "SENSORGNOME",
     "status":     "terminated",
     "name":     "Lawrencetown",
     "site":     "Lawrencetown",
     "depStart":     1447787700,
     "depEnd":     1458756000,
     "lat":     44.63786,
     "lon":     -63.31913,
     "mobile":     "false"
    },
    "2930":{
     "motusID":     473,
     "serialNo":     "SG-4001BBBK2720",
     "model":     "SENSORGNOME",
     "status":     "terminated",
     "name":     "Lawrencetown",
     "site":     "Lawrencetown",
     "depStart":     1458756000,
     "depEnd":     1461760200,
     "lat":     44.63786,
     "lon":     -63.31913,
     "mobile":     "false"
    },
    "3040":{
     "motusID":     473,
     "serialNo":     "SG-4001BBBK2720",
     "model":     "SENSORGNOME",
     "status":     "terminated",
     "name":     "Lawrencetown",
     "site":     "Lawrencetown",
     "depStart":     1461760200,
     "depEnd":     1468597500,
     "lat":     44.63786,
     "lon":     -63.31913,
     "mobile":     "false"
    },
    "729":{
     "motusID":     473,
     "serialNo":     "SG-4001BBBK2720",
     "model":     "SENSORGNOME",
     "status":     "terminated",
     "name":     "Lawrencetown",
     "site":     "Lawrencetown",
     "depStart":     1415886360,
     "depEnd":     1436117400,
     "lat":     44.63786,
     "lon":     -63.31913,
     "mobile":     "false"
    },
    "2401":{
     "motusID":     473,
     "serialNo":     "SG-4001BBBK2720",
     "model":     "SENSORGNOME",
     "status":     "terminated",
     "name":     "Lawrencetown",
     "site":     "Lawrencetown",
     "depStart":     1436117400,
     "depEnd":     1447787700,
     "lat":     44.63786,
     "lon":     -63.31913,
     "mobile":     "false"
    },
    "4412":{
     "motusID":     473,
     "serialNo":     "SG-4001BBBK2720",
     "model":     "SENSORGNOME",
     "status":     "terminated",
     "name":     "Brier Island",
     "site":     "Brier Island",
     "depStart":     1511177400,
     "depEnd":     1522930800,
     "lat":     44.2754,
     "lon":     -66.3493,
     "mobile":     "false"
    },
    "4754":{
     "motusID":     473,
     "serialNo":     "SG-4001BBBK2720",
     "model":     "SENSORGNOME",
     "status":     "terminated",
     "name":     "Brier Island",
     "site":     "Brier Island",
     "depStart":     1522930800,
     "depEnd":     1533908700,
     "lat":     44.2754,
     "lon":     -66.3493,
     "mobile":     "false"
    },
    "3976":{
     "motusID":     473,
     "serialNo":     "SG-4001BBBK2720",
     "model":     "SENSORGNOME",
     "status":     "terminated",
     "name":     "Brier2",
     "site":     "Brier Island",
     "depStart":     1503313200,
     "depEnd":     1511177400,
     "lat":     44.2754,
     "lon":     -66.3493,
     "mobile":     "false"
    },
    "3304":{
     "motusID":     473,
     "serialNo":     "SG-4001BBBK2720",
     "model":     "SENSORGNOME",
     "status":     "terminated",
     "name":     "Lawrencetown",
     "site":     "Lawrencetown",
     "depStart":     1468597500,
     "depEnd":     1474545000,
     "lat":     44.6379,
     "lon":     -63.3191,
     "mobile":     "false"
    },
    "3305":{
     "motusID":     474,
     "serialNo":     "SG-4002BBBK0640",
     "model":     "SENSORGNOME",
     "status":     "terminated",
     "name":     "Canso",
     "site":     "Canso",
     "depStart":     1468512900,
     "depEnd":     1479986340,
     "lat":     45.31952,
     "lon":     -60.96817,
     "mobile":     "false"
    },
    "3651":{
     "motusID":     474,
     "serialNo":     "SG-4002BBBK0640",
     "model":     "SENSORGNOME",
     "status":     "terminated",
     "name":     "Canso",
     "site":     "Canso",
     "depStart":     1479986340,
     "depEnd":     1493929800,
     "lat":     45.3195,
     "lon":     -60.9682,
     "mobile":     "false"
    },
    "3978":{
     "motusID":     474,
     "serialNo":     "SG-4002BBBK0640",
     "model":     "SENSORGNOME",
     "status":     "terminated",
     "name":     "Canso",
     "site":     "Canso",
     "depStart":     1493929800,
     "depEnd":     1503360000,
     "lat":     45.3195,
     "lon":     -60.9682,
     "mobile":     "false"
    },
    "731":{
     "motusID":     474,
     "serialNo":     "SG-4002BBBK0640",
     "model":     "SENSORGNOME",
     "status":     "terminated",
     "name":     "Canso",
     "site":     "Canso",
     "depStart":     1415976660,
     "depEnd":     1447879500,
     "lat":     45.31952,
     "lon":     -60.96817,
     "mobile":     "false"
    },
    "3046":{
     "motusID":     474,
     "serialNo":     "SG-4002BBBK0640",
     "model":     "SENSORGNOME",
     "status":     "terminated",
     "name":     "Canso",
     "site":     "Canso",
     "depStart":     1461868800,
     "depEnd":     1468512900,
     "lat":     45.31952,
     "lon":     -60.96817,
     "mobile":     "false"
    },
    "2939":{
     "motusID":     474,
     "serialNo":     "SG-4002BBBK0640",
     "model":     "SENSORGNOME",
     "status":     "terminated",
     "name":     "Canso",
     "site":     "Canso",
     "depStart":     1457442000,
     "depEnd":     1461868800,
     "lat":     45.31952,
     "lon":     -60.96817,
     "mobile":     "false"
    },
    "2708":{
     "motusID":     474,
     "serialNo":     "SG-4002BBBK0640",
     "model":     "SENSORGNOME",
     "status":     "terminated",
     "name":     "Canso",
     "site":     "Canso",
     "depStart":     1447879500,
     "depEnd":     1457442000,
     "lat":     45.31952,
     "lon":     -60.96817,
     "mobile":     "false"
    },
    "2711":{
     "motusID":     483,
     "serialNo":     "SG-1614BBBK1915",
     "model":     "SENSORGNOME",
     "status":     "terminated",
     "name":     "Beaubassin",
     "site":     "Beaubassin",
     "depStart":     1447592400,
     "depEnd":     1460286000,
     "lat":     45.85074,
     "lon":     -64.28214,
     "mobile":     "false"
    },
    "2962":{
     "motusID":     483,
     "serialNo":     "SG-1614BBBK1915",
     "model":     "SENSORGNOME",
     "status":     "terminated",
     "name":     "Beaubassin",
     "site":     "Beaubassin",
     "depStart":     1460297340,
     "depEnd":     1478981100,
     "lat":     45.85074,
     "lon":     -64.28214,
     "mobile":     "false"
    },
    "685":{
     "motusID":     483,
     "serialNo":     "SG-1614BBBK1915",
     "model":     "SENSORGNOME",
     "status":     "terminated",
     "name":     "Beaubassin",
     "site":     "Beaubassin",
     "depStart":     1400889600,
     "depEnd":     1403308800,
     "lat":     45.8507,
     "lon":     -64.2821,
     "mobile":     "false"
    },
    "1151":{
     "motusID":     483,
     "serialNo":     "SG-1614BBBK1915",
     "model":     "SENSORGNOME",
     "status":     "terminated",
     "name":     "Beaubassin",
     "site":     "Beaubassin",
     "depStart":     1403308800,
     "depEnd":     1431734400,
     "lat":     45.8507,
     "lon":     -64.2821,
     "mobile":     "false"
    },
    "2259":{
     "motusID":     483,
     "serialNo":     "SG-1614BBBK1915",
     "model":     "SENSORGNOME",
     "status":     "terminated",
     "name":     "Beaubassin",
     "site":     "Beaubassin",
     "depStart":     1432155600,
     "depEnd":     1447592400,
     "lat":     45.8507,
     "lon":     -64.2821,
     "mobile":     "false"
    },
    "2184":{
     "motusID":     483,
     "serialNo":     "SG-1614BBBK1915",
     "model":     "SENSORGNOME",
     "status":     "terminated",
     "name":     "Beaubassin",
     "site":     "Beaubassin",
     "depStart":     1431734400,
     "depEnd":     1432155600,
     "lat":     45.8507,
     "lon":     -64.2821,
     "mobile":     "false"
    },
    "3926":{
     "motusID":     483,
     "serialNo":     "SG-1614BBBK1915",
     "model":     "SENSORGNOME",
     "status":     "terminated",
     "name":     "Beaubassin",
     "site":     "Beaubassin",
     "depStart":     1492466400,
     "depEnd":     1510833000,
     "lat":     45.8507,
     "lon":     -64.2821,
     "mobile":     "false"
    },
    "3574":{
     "motusID":     483,
     "serialNo":     "SG-1614BBBK1915",
     "model":     "SENSORGNOME",
     "status":     "terminated",
     "name":     "Beaubassin",
     "site":     "Beaubassin",
     "depStart":     1478981100,
     "depEnd":     1492466400,
     "lat":     45.8507,
     "lon":     -64.2821,
     "mobile":     "false"
    },
    "4427":{
     "motusID":     483,
     "serialNo":     "SG-1614BBBK1915",
     "model":     "SENSORGNOME",
     "status":     "terminated",
     "name":     "Beaubassin",
     "site":     "Beaubassin",
     "depStart":     1510833000,
     "depEnd":     1561375800,
     "lat":     45.8507,
     "lon":     -64.2821,
     "mobile":     "false"
    },
    "5383":{
     "motusID":     483,
     "serialNo":     "SG-1614BBBK1915",
     "model":     "SENSORGNOME",
     "status":     "active",
     "name":     "Beaubassin",
     "site":     "Beaubassin",
     "depStart":     1561375860,
     "depEnd":     "NA",
     "lat":     45.8507,
     "lon":     -64.2821,
     "mobile":     "false"
    },
    "4439":{
     "motusID":     683,
     "serialNo":     "SG-4002BBBK0580",
     "model":     "SENSORGNOME",
     "status":     "terminated",
     "name":     "Lawrencetown",
     "site":     "Lawrencetown",
     "depStart":     1510411200,
     "depEnd":     1519061400,
     "lat":     44.6379,
     "lon":     -63.3191,
     "mobile":     "false"
    },
    "4168":{
     "motusID":     683,
     "serialNo":     "SG-4002BBBK0580",
     "model":     "SENSORGNOME",
     "status":     "terminated",
     "name":     "Lawrencetown 2",
     "site":     "Lawrencetown",
     "depStart":     1474545660,
     "depEnd":     1480012200,
     "lat":     44.6379,
     "lon":     -63.3191,
     "mobile":     "false"
    },
    "4169":{
     "motusID":     683,
     "serialNo":     "SG-4002BBBK0580",
     "model":     "SENSORGNOME",
     "status":     "terminated",
     "name":     "Lawrencetown 2",
     "site":     "Lawrencetown",
     "depStart":     1480012200,
     "depEnd":     1493831460,
     "lat":     44.6379,
     "lon":     -63.3191,
     "mobile":     "false"
    },
    "4170":{
     "motusID":     683,
     "serialNo":     "SG-4002BBBK0580",
     "model":     "SENSORGNOME",
     "status":     "terminated",
     "name":     "Lawrencetown 2",
     "site":     "Lawrencetown",
     "depStart":     1493831460,
     "depEnd":     1510411200,
     "lat":     44.6379,
     "lon":     -63.3191,
     "mobile":     "false"
    },
    "1129":{
     "motusID":     683,
     "serialNo":     "SG-4002BBBK0580",
     "model":     "SENSORGNOME",
     "status":     "terminated",
     "name":     "Kejimkujik",
     "site":     "Kejimkujik",
     "depStart":     1412274600,
     "depEnd":     1438014480,
     "lat":     44.40412,
     "lon":     -65.2199,
     "mobile":     "false"
    },
    "2497":{
     "motusID":     683,
     "serialNo":     "SG-4002BBBK0580",
     "model":     "SENSORGNOME",
     "status":     "terminated",
     "name":     "Kejimkujik",
     "site":     "Kejimkujik",
     "depStart":     1438014480,
     "depEnd":     1443623400,
     "lat":     44.40412,
     "lon":     -65.2199,
     "mobile":     "false"
    },
    "2964":{
     "motusID":     684,
     "serialNo":     "SG-4001BBBK2310",
     "model":     "SENSORGNOME",
     "status":     "terminated",
     "name":     "Escuminac2",
     "site":     "Escuminac",
     "depStart":     1460320200,
     "depEnd":     1479648000,
     "lat":     47.0794,
     "lon":     -64.8736,
     "mobile":     "false"
    },
    "1130":{
     "motusID":     684,
     "serialNo":     "SG-4001BBBK2310",
     "model":     "SENSORGNOME",
     "status":     "terminated",
     "name":     "Shag Harbour",
     "site":     "Shag Harbour",
     "depStart":     1412290800,
     "depEnd":     1432494000,
     "lat":     43.49304,
     "lon":     -65.71709,
     "mobile":     "false"
    },
    "2273":{
     "motusID":     684,
     "serialNo":     "SG-4001BBBK2310",
     "model":     "SENSORGNOME",
     "status":     "terminated",
     "name":     "Shag Harbour",
     "site":     "Shag Harbour",
     "depStart":     1432494000,
     "depEnd":     1448304600,
     "lat":     43.49304,
     "lon":     -65.71709,
     "mobile":     "false"
    },
    "4540":{
     "motusID":     684,
     "serialNo":     "SG-4001BBBK2310",
     "model":     "SENSORGNOME",
     "status":     "terminated",
     "name":     "Escuminac2",
     "site":     "Escuminac",
     "depStart":     1494605040,
     "depEnd":     1510056600,
     "lat":     47.0794,
     "lon":     -64.8736,
     "mobile":     "false"
    },
    "4541":{
     "motusID":     684,
     "serialNo":     "SG-4001BBBK2310",
     "model":     "SENSORGNOME",
     "status":     "terminated",
     "name":     "Escuminac2",
     "site":     "Escuminac",
     "depStart":     1510056660,
     "depEnd":     1533585600,
     "lat":     47.0794,
     "lon":     -64.8736,
     "mobile":     "false"
    },
    "3645":{
     "motusID":     684,
     "serialNo":     "SG-4001BBBK2310",
     "model":     "SENSORGNOME",
     "status":     "terminated",
     "name":     "Escuminac2",
     "site":     "Escuminac",
     "depStart":     1479648000,
     "depEnd":     1494605040,
     "lat":     47.0794,
     "lon":     -64.8736,
     "mobile":     "false"
    },
    "5593":{
     "motusID":     684,
     "serialNo":     "SG-4001BBBK2310",
     "model":     "SENSORGNOME",
     "status":     "terminated",
     "name":     "Escuminac2",
     "site":     "Escuminac",
     "depStart":     1533585600,
     "depEnd":     1566930600,
     "lat":     47.0794,
     "lon":     -64.8736,
     "mobile":     "false"
    },
    "5594":{
     "motusID":     684,
     "serialNo":     "SG-4001BBBK2310",
     "model":     "SENSORGNOME",
     "status":     "active",
     "name":     "Escuminac2",
     "site":     "Escuminac",
     "depStart":     1566930600,
     "depEnd":     "NA",
     "lat":     47.0794,
     "lon":     -64.8736,
     "mobile":     "false"
    },
    "2274":{
     "motusID":     685,
     "serialNo":     "SG-4002BBBK0010",
     "model":     "SENSORGNOME",
     "status":     "terminated",
     "name":     "Middle Ohio",
     "site":     "Middle Ohio",
     "depStart":     1432400400,
     "depEnd":     1438109400,
     "lat":     43.92472,
     "lon":     -65.40418,
     "mobile":     "false"
    },
    "2258":{
     "motusID":     685,
     "serialNo":     "SG-4002BBBK0010",
     "model":     "SENSORGNOME",
     "status":     "terminated",
     "name":     "Middle Ohio",
     "site":     "Middle Ohio",
     "depStart":     1416441600,
     "depEnd":     1432400400,
     "lat":     43.92472,
     "lon":     -65.40418,
     "mobile":     "false"
    },
    "1131":{
     "motusID":     685,
     "serialNo":     "SG-4002BBBK0010",
     "model":     "SENSORGNOME",
     "status":     "terminated",
     "name":     "Middle Ohio",
     "site":     "Middle Ohio",
     "depStart":     1412285400,
     "depEnd":     1416441600,
     "lat":     43.92472,
     "lon":     -65.40418,
     "mobile":     "false"
    },
    "2187":{
     "motusID":     1180,
     "serialNo":     "SG-4002BBBK0360",
     "model":     "SENSORGNOME",
     "status":     "terminated",
     "name":     "Joggins",
     "site":     "Joggins",
     "depStart":     1416787200,
     "depEnd":     1422316800,
     "lat":     45.69514,
     "lon":     -64.45016,
     "mobile":     "false"
    },
    "2188":{
     "motusID":     1180,
     "serialNo":     "SG-4002BBBK0360",
     "model":     "SENSORGNOME",
     "status":     "terminated",
     "name":     "Joggins",
     "site":     "Joggins",
     "depStart":     1431648000,
     "depEnd":     1460836800,
     "lat":     45.69514,
     "lon":     -64.45016,
     "mobile":     "false"
    },
    "2020":{
     "motusID":     1180,
     "serialNo":     "SG-4002BBBK0360",
     "model":     "SENSORGNOME",
     "status":     "terminated",
     "name":     "Joggins",
     "site":     "Joggins",
     "depStart":     1412121600,
     "depEnd":     1416787200,
     "lat":     45.69514,
     "lon":     -64.45016,
     "mobile":     "false"
    },
    "2972":{
     "motusID":     1180,
     "serialNo":     "SG-4002BBBK0360",
     "model":     "SENSORGNOME",
     "status":     "terminated",
     "name":     "Joggins",
     "site":     "Joggins",
     "depStart":     1460836800,
     "depEnd":     1566999000,
     "lat":     45.6951,
     "lon":     -64.4502,
     "mobile":     "false"
    },
    "5595":{
     "motusID":     1180,
     "serialNo":     "SG-4002BBBK0360",
     "model":     "SENSORGNOME",
     "status":     "active",
     "name":     "Joggins",
     "site":     "Joggins",
     "depStart":     1566999000,
     "depEnd":     "NA",
     "lat":     45.6951,
     "lon":     -64.4502,
     "mobile":     "false"
    },
    "2247":{
     "motusID":     1181,
     "serialNo":     "SG-4712BB000550",
     "model":     "SENSORGNOME",
     "status":     "terminated",
     "name":     "West Bay",
     "site":     "West Bay",
     "depStart":     1406129520,
     "depEnd":     1434128400,
     "lat":     45.372,
     "lon":     -64.403,
     "mobile":     "false"
    },
    "2048":{
     "motusID":     1192,
     "serialNo":     "SG-4005BBBK4310",
     "model":     "SENSORGNOME",
     "status":     "terminated",
     "name":     "East Walton",
     "site":     "East Walton",
     "depStart":     1433526600,
     "depEnd":     1448901000,
     "lat":     45.2499,
     "lon":     -63.9571,
     "mobile":     "false"
    },
    "2977":{
     "motusID":     1192,
     "serialNo":     "SG-4005BBBK4310",
     "model":     "SENSORGNOME",
     "status":     "terminated",
     "name":     "East Walton",
     "site":     "East Walton",
     "depStart":     1460903400,
     "depEnd":     1468953600,
     "lat":     45.2499,
     "lon":     -63.9571,
     "mobile":     "false"
    },
    "2674":{
     "motusID":     1192,
     "serialNo":     "SG-4005BBBK4310",
     "model":     "SENSORGNOME",
     "status":     "terminated",
     "name":     "East Walton",
     "site":     "East Walton",
     "depStart":     1448901000,
     "depEnd":     1460903400,
     "lat":     45.2499,
     "lon":     -63.9571,
     "mobile":     "false"
    },
    "3569":{
     "motusID":     1192,
     "serialNo":     "SG-4005BBBK4310",
     "model":     "SENSORGNOME",
     "status":     "terminated",
     "name":     "East Walton",
     "site":     "East Walton",
     "depStart":     1478634300,
     "depEnd":     1492711500,
     "lat":     45.2499,
     "lon":     -63.9571,
     "mobile":     "false"
    },
    "3289":{
     "motusID":     1192,
     "serialNo":     "SG-4005BBBK4310",
     "model":     "SENSORGNOME",
     "status":     "terminated",
     "name":     "East Walton",
     "site":     "East Walton",
     "depStart":     1468953600,
     "depEnd":     1478634300,
     "lat":     45.2499,
     "lon":     -63.9571,
     "mobile":     "false"
    },
    "3928":{
     "motusID":     1192,
     "serialNo":     "SG-4005BBBK4310",
     "model":     "SENSORGNOME",
     "status":     "terminated",
     "name":     "East Walton",
     "site":     "East Walton",
     "depStart":     1492711500,
     "depEnd":     1510926780,
     "lat":     45.2499,
     "lon":     -63.9571,
     "mobile":     "false"
    },
    "4589":{
     "motusID":     1192,
     "serialNo":     "SG-4005BBBK4310",
     "model":     "SENSORGNOME",
     "status":     "active",
     "name":     "East Walton",
     "site":     "East Walton",
     "depStart":     1523293200,
     "depEnd":     "NA",
     "lat":     45.2499,
     "lon":     -63.9571,
     "mobile":     "false"
    },
    "4426":{
     "motusID":     1192,
     "serialNo":     "SG-4005BBBK4310",
     "model":     "SENSORGNOME",
     "status":     "terminated",
     "name":     "East Walton",
     "site":     "East Walton",
     "depStart":     1510926780,
     "depEnd":     1523293200,
     "lat":     45.2499,
     "lon":     -63.9571,
     "mobile":     "false"
    },
    "3950":{
     "motusID":     1273,
     "serialNo":     "SG-4000BBBK9350",
     "model":     "SENSORGNOME",
     "status":     "terminated",
     "name":     "Cape Enrage 2",
     "site":     "Cape Enrage",
     "depStart":     1493215500,
     "depEnd":     1500249600,
     "lat":     45.5952,
     "lon":     -64.7806,
     "mobile":     "false"
    },
    "3287":{
     "motusID":     1273,
     "serialNo":     "SG-4000BBBK9350",
     "model":     "SENSORGNOME",
     "status":     "terminated",
     "name":     "Cape Enrage 2",
     "site":     "Cape Enrage",
     "depStart":     1469022000,
     "depEnd":     1478971200,
     "lat":     45.5952,
     "lon":     -64.7806,
     "mobile":     "false"
    },
    "3573":{
     "motusID":     1273,
     "serialNo":     "SG-4000BBBK9350",
     "model":     "SENSORGNOME",
     "status":     "terminated",
     "name":     "Cape Enrage 2",
     "site":     "Cape Enrage",
     "depStart":     1478971200,
     "depEnd":     1493215500,
     "lat":     45.5952,
     "lon":     -64.7806,
     "mobile":     "false"
    },
    "2971":{
     "motusID":     1273,
     "serialNo":     "SG-4000BBBK9350",
     "model":     "SENSORGNOME",
     "status":     "terminated",
     "name":     "Cape Enrage 2",
     "site":     "Cape Enrage",
     "depStart":     1460820600,
     "depEnd":     1469022000,
     "lat":     45.5952,
     "lon":     -64.7806,
     "mobile":     "false"
    },
    "2271":{
     "motusID":     1273,
     "serialNo":     "SG-4000BBBK9350",
     "model":     "SENSORGNOME",
     "status":     "terminated",
     "name":     "Cape Enrage 2",
     "site":     "Cape Enrage",
     "depStart":     1432238400,
     "depEnd":     1460764800,
     "lat":     45.5952,
     "lon":     -64.7806,
     "mobile":     "false"
    },
    "2320":{
     "motusID":     1292,
     "serialNo":     "SG-4000BBBK9330",
     "model":     "SENSORGNOME",
     "status":     "terminated",
     "name":     "West Bay2",
     "site":     "West Bay",
     "depStart":     1434136320,
     "depEnd":     1461681720,
     "lat":     45.3718,
     "lon":     -64.4035,
     "mobile":     "false"
    },
    "3038":{
     "motusID":     1292,
     "serialNo":     "SG-4000BBBK9330",
     "model":     "SENSORGNOME",
     "status":     "terminated",
     "name":     "West Bay2",
     "site":     "West Bay",
     "depStart":     1461681720,
     "depEnd":     1479050100,
     "lat":     45.3718,
     "lon":     -64.4035,
     "mobile":     "false"
    },
    "3643":{
     "motusID":     1292,
     "serialNo":     "SG-4000BBBK9330",
     "model":     "SENSORGNOME",
     "status":     "terminated",
     "name":     "West Bay 2",
     "site":     "West Bay",
     "depStart":     1479050100,
     "depEnd":     1492449600,
     "lat":     45.3718,
     "lon":     -64.4035,
     "mobile":     "false"
    },
    "3925":{
     "motusID":     1292,
     "serialNo":     "SG-4000BBBK9330",
     "model":     "SENSORGNOME",
     "status":     "terminated",
     "name":     "West Bay 2",
     "site":     "West Bay",
     "depStart":     1492449600,
     "depEnd":     1510847100,
     "lat":     45.3718,
     "lon":     -64.4035,
     "mobile":     "false"
    },
    "4429":{
     "motusID":     1292,
     "serialNo":     "SG-4000BBBK9330",
     "model":     "SENSORGNOME",
     "status":     "terminated",
     "name":     "West Bay",
     "site":     "West Bay",
     "depStart":     1510847100,
     "depEnd":     1558465200,
     "lat":     45.3718,
     "lon":     -64.4035,
     "mobile":     "false"
    },
    "5634":{
     "motusID":     1292,
     "serialNo":     "SG-4000BBBK9330",
     "model":     "SENSORGNOME",
     "status":     "active",
     "name":     "West Bay",
     "site":     "West Bay",
     "depStart":     1558465200,
     "depEnd":     "NA",
     "lat":     45.3718,
     "lon":     -64.4035,
     "mobile":     "false"
    },
    "3290":{
     "motusID":     1293,
     "serialNo":     "SG-4000BBBK9550",
     "model":     "SENSORGNOME",
     "status":     "active",
     "name":     "Selma2",
     "site":     "Selma2",
     "depStart":     1468956600,
     "depEnd":     "NA",
     "lat":     45.3338,
     "lon":     -63.5407,
     "mobile":     "false"
    },