stationID,projectID,stationName,latitude,longitude,station_status
9806,370,370_testStation,42.61550000,-80.45860000,1
9822,1,Brebeuf Island,44.87620000,-79.88470000,1
9823,1,Case Western Reserve,41.50150000,-81.60740000,1
9824,1,Moosonee,51.28500000,-80.62380000,2
9825,1,Nelles,42.94390000,-79.96020000,1
9826,123,34_IfV,53.56450000,8.10820000,1
9827,31,Miller,29.75970000,-92.83910000,1
9828,35,PARC Mt. Laurel,40.18090000,-79.15040000,2
9829,1,CompuData,42.93040000,-81.18500000,1
9831,90,St. George Island,29.67210000,-84.84140000,1
9832,184,Zoo Miami,25.60970000,-80.39770000,2
9833,113,Westkapelle vuurtoren Hoog,51.52920000,3.44710000,2
9834,113,Breskens vuurtoren,51.40690000,3.52140000,1
9835,10,LabTest,NULL,NULL,1
9836,190,Pisgah Astronomical Research Institute,35.19700000,-82.87320000,2
9837,165,Kalamazoo Nature Center,42.36400000,-85.58950000,2
9838,113,Reddingsbrigade Maasvlakte,51.92690000,3.98230000,2
9839,145,Franks Tower,24.66860000,-75.74550000,1
9840,145,Knowles Tower,24.38240000,-75.51320000,1
9841,145,Ft. Clinch,30.69870000,-81.43210000,2
9842,145,Little Talbot,30.43130000,-81.41080000,1
9843,113,WUR Zandmotor Argusmast,52.05080000,4.18450000,2
9844,123,61_FINO1,54.01490000,6.58760000,2
9845,123,63_FINO3,55.19500000,7.15830000,2
9846,168,Macdonald Campus of McGill University,45.40790000,-73.93900000,1
9847,78,Nappan,45.79640000,-64.17870000,1
9848,113,Brandweer Maasvlakte,51.98570000,4.02890000,2
9849,197,Tantramar,45.89660000,-64.34390000,1
9850,1,Torrance B,44.94040000,-79.50300000,2
9851,14,FRED,40.94770000,-73.07010000,2
9852,120,Trinity River NWR Die House,30.41230000,-94.88420000,2
9853,201,Clifton,49.73400000,-97.13170000,1
9854,201,Oak Hammock Marsh,50.17370000,-97.13280000,1
9855,201,Fortwhyte Alive,49.81920000,-97.22520000,1
9856,47,Grassy Sound,39.02770000,-74.80950000,1
9857,191,Dinner Island,49.12370000,-125.84140000,2
9858,191,Kwisitis Visitor Centre - PRNPR,49.01330000,-125.67470000,2
9859,191,Wickaninnish Inn,49.12300000,-125.90190000,2
9860,40,Akimiski,53.10490000,-80.95810000,2
9861,113,RWS gebouw Haringvlietdam,51.82780000,4.04440000,2
9862,195,LaTuque-MFFP,47.43520000,-72.77830000,1
9863,195,LaTuque-Presbytere,47.44140000,-72.78460000,1
9864,195,LaTuque-Golf,47.43530000,-72.79130000,1
9865,195,LacEdouard-Grange,47.64950000,-72.29090000,1
9866,211,Mølen_Norway,58.97270000,9.83640000,2
9867,211,Ringdalskogen_Norway,59.11320000,10.11070000,2
9868,134,State Game Lands Curtin Road,40.95660000,-77.72210000,2
9869,134,Foster Joseph Sayers Dam,41.05000000,-77.61690000,2
9870,134,Howard Nursey,40.98560000,-77.70960000,2
9871,3,Drone-2018,43.00000000,-80.00000000,1
9872,48,Hog Island,43.97900000,-69.41640000,2
9873,31,BRHQ,30.39940000,-91.12900000,2
9874,217,Kokszijde,51.12360000,2.64830000,2
9875,201,Tall grass prairie,49.15310000,-96.72910000,2
9876,123,28_Jade-Weser-Port,53.58890000,8.14110000,2
9877,113,Huiberts,52.77870000,4.70820000,2
9878,168,Residence de la Solitude,45.45600000,-73.93510000,1
9879,224,Canarie,43.38130000,-83.19550000,1
9880,214,CASA,-15.53300000,128.15690000,1
9881,214,Island,-15.52200000,128.14180000,1
9882,214,Powerline,-15.46280000,128.11770000,2
9883,214,Quarry,-15.47080000,128.10680000,1
9884,214,Caravan,-15.47880000,128.11220000,1
9885,134,323 Lamb's Gap,40.97080000,-77.69690000,2
9886,167,James River NWR,37.26350000,-77.14390000,1
9887,31,Attakapas Wildlife Management Area,29.87720000,-91.45480000,1
9888,31,Richard K. Yancey Wildlife Management Area,31.19010000,-91.63230000,2
9889,1,High Park,43.64600000,-79.46590000,2
9890,76,Amrum 1 ,54.64520000,8.36110000,2
9891,31,Marsh Island,29.54370000,-91.90620000,1
9892,210,MDC HQ,38.59130000,-92.22840000,2
9893,48,Elk38,41.54240000,-78.86930000,2
9894,225,Deer Pond Farm,41.55300000,-73.52360000,2
9895,3,Quarry,50.21590000,-63.79780000,1
9896,14,UWO-SSC,43.00960000,-81.27550000,1
9897,31,LCHQ,30.23630000,-93.22980000,2
9898,31,Atchafalaya Delta WMA,29.44770000,-91.33900000,1
9899,113,Bergen aan zee,52.66530000,4.64220000,2
9900,123,29_Sillenstede,53.57330000,7.99100000,1
9901,231,CCIW,43.29860000,-79.80070000,2
9902,113,Strandhotel Vlieland,53.30370000,5.05180000,2
9903,233,Craney Island North Cell,36.92280000,-76.38390000,2
9904,234,WGLBBO - Forest Beach Migratory Preserve,43.45020000,-87.82200000,2
9905,1,Western_University_T,42.58300000,-80.39780000,1
9906,1,Rock_Point_Provincia,42.85420000,-79.55370000,1
9907,1,Conestogo,43.66590000,-80.72680000,2
9908,1,Crown Marsh,42.59170000,-80.41790000,1
9909,1,Presqu'ile Provincia,44.00780000,-77.74050000,1
9910,1,DarlingtonPP,43.87350000,-78.78870000,1
9911,1,Dover_Quarry,42.81010000,-80.18420000,1
9912,1,Walsingham Super Tower,42.63540000,-80.55770000,2
9913,1,West Port Bruce,42.66160000,-81.06270000,2
9914,1,East Port Bruce,42.66180000,-80.90440000,1
9915,140,Edisto Beach State Park,32.50430000,-80.29550000,2
9916,236,Wandering,-32.75380000,116.64660000,1
9917,239,Icapui Shrimp Farm,-4.70430000,-37.35000000,2
9918,239,Icapui Tico's Restaurant,-4.68880000,-37.35810000,2
9919,239,Areia Branca BCCB,-4.92790000,-37.11640000,2
9920,240,Kent Farm Research Station,39.15170000,-86.39640000,2
9921,206,LLELA Dam,33.06990000,-96.93970000,2
9922,124,Ilha de Maraca,2.09770000,-50.49970000,2
9923,124,Apeu-Salvador,-0.94310000,-46.18910000,2
9924,231,Guelph Lake 2,43.60490000,-80.25420000,1
9925,19,Territory 22,18.04270000,-77.94260000,1
9926,191,Brunswick Point farm,49.05880000,-123.14210000,2
9927,244,Shell Island Rd,26.02520000,-81.73160000,2
9928,19,Territory_21_Center,18.04300000,-77.94010000,1
9929,19,Territory_21_LIIK11,18.04290000,-77.93970000,1
9930,247,SSRS Headquarters,35.68690000,-118.28930000,1
9931,19,Territory_21_LII,18.04350000,-77.93980000,1
9932,19,Territory_21_K9,18.04320000,-77.94060000,1
9933,64,Olentangy Wetlands,40.02010000,-83.01860000,2
9934,64,Vinton Furnace Weather Station,39.20020000,-82.39440000,2
9935,64,Vinton Furnace Ball Diamond,39.19270000,-82.40540000,1
9936,48,Forbesway,40.22480000,-79.19380000,2
9937,241,WyndhamGolfCourse,-15.54500000,128.20490000,1
9938,113,Paal 9,53.02120000,4.71120000,2
9939,35,PARC Friedline Field,40.13490000,-79.28620000,1
9940,10,CHEB,44.50260000,-63.52210000,1
9941,31,Jean Lafitte National Historical Park and Preserve,29.78390000,-90.11540000,2
9942,31,Ladd,29.75690000,-92.89390000,1
9943,174,Lagoa De Peixe - Brazil,-31.32400000,-50.99690000,1
9944,19,Territory_308,18.04290000,-77.94340000,1
9945,191,Iona Shore Station,49.21610000,-123.20550000,2
9946,48,Grain Elevator,39.22830000,-75.99080000,1
9947,48,Phoenix Wildlife Center,39.51290000,-76.51420000,2
9948,113,Lowersoft - CEFAS,52.45920000,1.74030000,2
9949,113,Landguard Bird Observatory,51.93780000,1.32090000,2
9950,253,Dewees Island,32.83600000,-79.72670000,2
9951,177,Perth,-31.95000000,115.86000000,1
9952,241,Chimouli,-15.46730000,128.19910000,1
9953,241,ParryFarm,-15.59970000,128.27900000,1
9954,257,Kingsley Plantation,30.44110000,-81.43910000,2
9955,14,RASA,-36.30620000,-56.77310000,2
9956,19,Territory_308_2,18.04310000,-77.94320000,1
9957,19,Territory_308_3,18.04260000,-77.94290000,1
9958,250,Bradwell,51.92960000,-106.21820000,1
9959,223,Ottenby Bird Observatory,56.19770000,16.39950000,2
9960,223,Linnaeus University,56.65890000,16.36400000,2
9961,265,Boyd Deep Canyon Research Reserve,33.64820000,-116.37830000,1
9962,234,Woodland Dunes- Goodwin Road,44.13870000,-87.61600000,2
9963,195,Pourvoirie Oswego,47.65860000,-72.50360000,1
9964,195,Lac Édouard-1,47.61480000,-72.36370000,1
9965,195,Chaufferie,47.64920000,-72.29260000,1
9966,251,Villas,39.04730000,-74.92390000,2
9967,246,MadIsland1,28.68270000,-96.10830000,1
9968,246,MadIsland2,28.68200000,-96.00800000,1
9969,246,MadIsland3,28.62680000,-96.10320000,1
9970,246,MadIsland4,28.63090000,-96.09600000,1
9971,197,Scoudouc Water Treatment Plant,46.14560000,-64.56160000,1
9972,197,Memramcook,45.98320000,-64.56320000,2
9973,197,Salisbury Sewage Ponds,46.03500000,-65.01650000,1
9974,227,Wanggong - Changhua,23.97020000,120.32540000,1
9976,203,Harold,44.12720000,-76.71810000,1
9975,275,Vero Beach High School,27.62990000,-80.40280000,2
9977,234,Camp Whitcomb Mason,43.17590000,-88.32270000,2
9978,203,North_Shore,44.17920000,-76.67310000,1
9979,92,Jones Baseline,43.81650000,-80.51500000,1
9980,92,Sixth Line,43.82160000,-80.38590000,1
9981,35,Cleveland Lakefront Nature Preserve,41.54230000,-81.62900000,2
9982,92,TRES Field North,43.60960000,-80.25990000,1
9983,67,Churchill - Mobile,58.73760000,-93.81900000,1
9984,250,DIEFENBAKER,51.25500000,-106.82770000,1
9985,280,Stump Lake,50.38940000,-120.32740000,2
9986,280,Douglas Lake,50.12630000,-120.36040000,2
9987,280,Merritt,50.08040000,-120.76220000,2
9988,280,Kamloops,50.60680000,-120.31340000,2
9989,280,Coldwater,49.88300000,-120.90800000,2
9990,280,Britton Creek,49.64790000,-121.00300000,2
9991,280,Laidlaw,49.32140000,-121.62170000,2
9992,280,Box Canyon,49.57540000,-121.17940000,2
9993,280,Peers,49.38870000,-121.31890000,1
9994,113,WUR - Schagerbrug2019,52.80360000,4.75140000,2
9995,78,Cape George,45.87390000,-61.89990000,1
9996,282,Smithsonian Conservation Biology Institute,38.89450000,-78.16090000,2
9997,267,ISB QC,45.38210000,-73.75350000,1
9998,213,Lake Petite- WI,42.51170000,-88.54880000,2
9999,113,WUR - Oostvoorne,51.91590000,4.06050000,2
10000,1,Frogmore Batbox,42.69210000,-80.64990000,1
10001,1,Durham Treatment Pla,43.86890000,-78.75380000,1
10002,1,Koffler,44.02410000,-79.53710000,2
10003,1,Wolfe,44.14140000,-76.38840000,2
10004,1,Brighton,44.01280000,-77.74520000,2
10005,1,Saunders,45.00910000,-74.79030000,2
10006,1,Evangola State Park,42.61270000,-79.11100000,1
10007,1,Bookton,42.96730000,-80.51770000,1
10008,1,Long Point Provincia,42.58230000,-80.38520000,1
10009,113,WUR st Maartensvlotbrug Parallelweg,52.79690000,4.71350000,2
10010,197,Sussex,45.72130000,-65.53860000,1
10011,198,UNAM en Sisal,21.16340000,-90.04660000,2
10012,198,DUMAC en Celestun,20.85830000,-90.38300000,1
10013,167,New Point Comfort,37.32050000,-76.27880000,1
10014,167,Dameron Marsh,37.78640000,-76.30590000,1
10015,241,ElQuestro,-15.99470000,127.98060000,2
10016,4,The Sanctuary,32.60120000,-80.09210000,1
10017,4,Osprey Point,32.61380000,-80.05370000,1
10018,4,Marsh Island,32.62140000,-80.06500000,1
10019,4,Captain Sams,32.58280000,-80.14010000,1
10020,197,Estabrooks,45.93210000,-64.34510000,1
10021,189,Fort Wayne Children's Zoo,41.10850000,-85.14850000,2
10022,189,Bluecast,41.15480000,-84.86340000,2
10023,281,Home,40.57260000,-105.04910000,1
10024,280,Surrey,49.15000000,-122.71850000,2
10025,197,King,45.84550000,-64.37530000,1
10026,248,Boatswain Bay,51.79850000,-78.97040000,2
10027,261,Buckner2019,43.59000000,-73.41380000,2
10028,225,Shepaug Dam,41.44850000,-73.29570000,2
10029,172,Trunk Island - Bermuda,32.33310000,-64.72690000,2
10030,1,Torrance C,44.94500000,-79.52350000,2
10031,280,Abbotsford,49.02790000,-122.26320000,2
10032,92,Hindmarsh Small Barn,43.75190000,-80.14940000,1
10033,92,Hindmarsh Large Barn,43.75180000,-80.15000000,1
10034,287,Plum Lake West,49.61390000,-100.76620000,1
10035,287,Sextons Island - WW,49.29090000,-100.32090000,2
10036,287,Jiggens Bluff,49.61540000,-100.65470000,2
10037,223,Klobbskat,63.30420000,21.09240000,2
10038,223,Skagsudde,63.18800000,19.01600000,2
10039,223,Lungön,62.64190000,18.08950000,2
10040,113,WUR Vinetaduin Hoek van Holland,51.98320000,4.11640000,2
10041,113,WUR Callantsoog Reddingsbrigade,52.83680000,4.69060000,2
10042,234,Kohler Eagle Valley,42.81050000,-91.06240000,2
10043,113,WUR - Neeltje Jans - Lange Neel,51.62210000,3.66920000,2
10044,223,Näsby 154,56.24450000,16.46500000,2
10045,113,WUR Brouwersdam sluis,51.74860000,3.82590000,2
10046,113,WUR Dunwich,52.25330000,1.62780000,2
10047,213,Willow Mountain-MT,46.32130000,-113.90430000,1
10048,1,Magnetawan First Nation,45.76940000,-80.50080000,2
10049,213,Sula Peak-MT,45.86060000,-113.99920000,1
10050,291,Spurn Bird Observatory,53.62120000,0.13060000,2
10051,291,Dungeness Bird Observatory,50.91690000,0.96520000,2
10052,197,Little Shemogue,46.11370000,-64.02310000,2
10053,10,Bouctouche,46.46160000,-64.65930000,1
10054,10,Hopewell Rocks,45.81640000,-64.58310000,1
10055,10,Barachois,46.23520000,-64.43660000,1
10056,10,Tintamarre,45.94070000,-64.25750000,1
10057,226,MPG-MT,46.71150000,-114.03970000,1
10058,48,Rice Family Farm,41.93290000,-77.41240000,2
10059,253,Daufuskie Island,32.12000000,-80.84250000,2
10060,276,Hodgdon 1,46.03860000,-67.83300000,2
10061,276,Bridgewater 2,46.39120000,-67.84130000,2
10062,276,Fort Fairfield 3,46.71140000,-67.82520000,2
10063,276,Caswell 4,46.99530000,-67.80510000,2
10064,57,Reserva Las Brisas,10.06910000,-83.62940000,2
10065,165,Kensington,42.55200000,-83.63700000,2
10066,10,Mary's Point,45.72590000,-64.67310000,2
10067,10,CFI,45.73540000,-65.30180000,2
10068,276,Stratford Point,41.15340000,-73.10370000,2
10069,276,Hammonassett SP,41.25980000,-72.54960000,2
10070,241,Drone,-12.37000000,130.86600000,2
10071,253,Harbor Island,32.39890000,-80.44260000,2
10072,293,Cape May Point State Park,38.93190000,-74.95940000,2
10073,293,Wetlands Institute,39.05790000,-74.77520000,1
10074,48,Assateague Island National Seashore,38.14940000,-75.17340000,1
10075,78,Pictou,45.67460000,-62.70890000,1
10076,20,AFAR,43.01100000,-81.28000000,1
10077,123,40_Mittelplate,54.02620000,8.72980000,2
10078,282,Castleton View,38.60400000,-78.10900000,2
10079,240,Morgan Monroe State Forest,39.32320000,-86.41320000,2
10080,63,Chiloe,-41.82660000,-73.62700000,2
10081,63,Laboratorio Costero Calfuco,-39.78010000,-73.39240000,2
10082,2,Motus Mobile 1,-41.82580000,-73.63120000,1
10083,211,Grunnsund_Bamble_Norway,58.93700000,9.61010000,2
10084,211,Ringdalskogen_2_Norway,59.11310000,10.11040000,2
10085,211,Slevedalsvann_Lista_Norway,58.10480000,6.60630000,2
10086,211,Lista Fyr_Norway,58.10920000,6.56750000,2
10087,211,Vestveien_Tjøme_Norway,59.12580000,10.38350000,2
10088,211,Gjekstad_Sandefjord_Norway,59.13580000,10.26800000,2
10089,63,Zorritos - Maria del Mar,-3.67440000,-80.66430000,2
10090,63,Reserva Nacional Paracas,-13.86810000,-76.27310000,2
10091,313,Tulsa Zoo,36.20830000,-95.91040000,2
10092,65,Malaquite,27.42220000,-97.30090000,2
10093,317,Belle Isle Nature Center,42.34690000,-82.96370000,2
10094,167,William Floyd Estate,40.77210000,-72.83160000,2
10095,280,Rayleigh_Elementary_School,50.79800000,-120.31550000,2
10096,321,Vlieland - Flidunen,53.30050000,5.07810000,2
10097,284,Carpenter Main Campus,44.76610000,-92.81360000,1
10098,213,KBK Ranch-MT,46.11150000,-114.17060000,1
10099,324,Ellis Bird Farm,52.39040000,-113.61100000,2
10100,2,Tangier (Mooseland),44.93660000,-62.78380000,1
10101,2,Machias Seal Island,44.50230000,-67.10180000,1
10102,2,Port Joli,43.81550000,-64.89640000,1
10103,3,Caye de la Riviere M,50.31940000,-64.42130000,1
10104,3,FM Belle-Fontaine,47.39842000,-71.13779000,1
10105,3,FM Jardin Nord,47.38920000,-71.08420000,1
10106,3,FM Jardin Ouest,47.38320000,-71.08820000,1
10107,3,FM Tour Jutras Demo,47.28480000,-71.15150000,1
10108,3,Longue-Pointe de Min,50.26270000,-64.15100000,1
10109,3,Rivière St-Jean,50.29560000,-64.32370000,1
10110,3,D'Estimauville,46.84300000,-71.21110000,2
10111,5,Hopewell,45.82525000,-64.57288000,1
10112,6,Panama Barro Colorad,9.15800000,-79.84740000,2
10113,7,EAGLENEST1,41.46113600,-82.99788100,1
10114,7,Matinicus,43.78353100,-68.85487200,1
10115,7,MATINICUS,43.78360000,-68.85490000,1
10116,7,MATINICUS,43.78370000,-68.85490000,1
10117,7,MATINICUS,43.78360000,-68.85490000,1
10118,7,MDR,43.96890000,-68.12830000,1
10119,7,PMI,44.36750000,-67.86430000,1
10120,7,PMP_WL,44.40157300,-67.89646500,1
10121,7,ROBERTS,44.01244700,-68.80514100,1
10122,7,Roberts,44.01267500,-68.80475700,1
10123,7,SHIP,44.23450000,-68.43920000,1
10124,7,Two Bush,43.87771600,-68.88358300,1
10125,7,TWOBUSH,43.87797400,-68.88350400,1
10126,8,PINEO,44.56445000,-67.80666800,1
10127,8,PINEO,44.56449700,-67.80664700,1
10128,250,Smith,51.75160000,-106.14290000,1
10129,274,Phoenix,47.39160000,-88.27920000,2
10130,281,GPCD Soapstone,40.97680000,-105.07660000,2
10131,223,Triberga,56.46420000,16.57370000,2
10132,1,Maple Leaf,44.17680000,-79.91850000,2
10133,48,Norman G. Wilder WMA,39.03410000,-75.64150000,2
10134,205,Dorris Hill,41.96400000,-121.89030000,2
10135,217,Belwind Voltage station,51.66600000,2.80000000,2
10136,48,Strawberry Fields Preserve,42.92450000,-74.12380000,2
10137,48,Greenwoods Conservancy,42.72190000,-75.10470000,2
10138,48,Lake Shore Marshes WMA,43.31300000,-76.78120000,2
10139,48,Derby Hill Bird Observatory,43.52760000,-76.23890000,2
10140,1,Thomson Reserve,45.57150000,-80.51430000,2
10141,1,Little McCoy,45.45510000,-80.48100000,2
10142,1,Grimsby Wetland,43.21590000,-79.61460000,2
10143,248,Consolation Point,51.64390000,-79.22550000,2
10144,248,Charlton Island,51.95950000,-79.33320000,2
10145,213,Kuna-ID,43.50160000,-116.40600000,2
10146,213,Nampa-ID,43.56080000,-116.66600000,2
10147,113,WUR Texel KNRM,53.17410000,4.86840000,2
10148,113,WUR Julianadorp Middenvliet,52.91510000,4.72390000,2
10149,213,Barb Garten-MT,46.14570000,-114.15620000,2
10150,48,Nahant,42.41660000,-70.90980000,2
10151,281,GPCD Rocky Mountain Arsenal NWR,39.82750000,-104.85710000,2
10152,325,Zoo New England,42.22250000,-71.06210000,2
10153,310,Broadview,39.49440000,-76.30520000,1
10154,48,Interstate Fire Tower,38.80150000,-75.72050000,2
10155,211,Presterødkilen_Tønsberg_Norway,59.27220000,10.43820000,2
10156,65,Packery,27.62070000,-97.20240000,1
10157,223,Medborgarhuset - Grönhögen,56.26370000,16.40910000,2
10158,48,SUNY Potsdam - Bowman Hall,44.66050000,-74.97210000,2
10159,156,Water Plant,42.67780000,-82.73470000,2
10160,113,WUR Julianadorp Vogelzand,52.89190000,4.73510000,2
10161,48,Rome WMA,43.18480000,-75.50440000,2
10162,48,Upper & Lower Lakes WMA,44.61960000,-75.22740000,2
10163,343,Little Bear,32.61530000,-79.99660000,2
10164,343,Timbers,32.58820000,-80.12870000,2
10165,48,Utica Zoo,43.08230000,-75.24600000,2
10166,48,Perch River WMA,44.08760000,-75.97320000,2
10167,64,Winous Point 2020,41.46170000,-82.99740000,2
10168,48,Three Rivers WMA,43.20560000,-76.31950000,2
10169,1,Mallett,45.23600000,-79.88750000,2
10170,223,Östra Norrskär,63.24660000,20.68480000,2
10171,324,NW Calgary,51.08940000,-114.07700000,1
10172,345,NW Calgary,51.08920000,-114.08190000,2
10173,213,Sterling Wildlife Management Area-ID,42.99330000,-112.78020000,2
10174,213,Minidoka National Wildlife Refuge - ID,42.67280000,-113.47750000,2
10175,213,Niagara Springs WMA-ID,42.67640000,-114.73370000,2
10176,213,Warm Springs ARCO-MT,46.12650000,-112.79400000,2
10177,213,Vesper Meadow-OR,42.26240000,-122.45620000,2
10178,213,American Prairie Reserve-MT,47.85590000,-108.05270000,1
10179,113,WUR Vlieland Kazerne,53.25380000,4.94160000,2
10180,1,Darlington OPG,43.87660000,-78.73630000,2
10181,290,Whitfield Hamilton Grain Elevator,36.52710000,-87.10700000,2
10182,347,Cibola NWR Island Unit,33.30390000,-114.69340000,2
10183,253,Port Royal,32.37450000,-80.83760000,2
10184,212,northern MN,47.14640000,-92.72690000,2
10185,332,AHATS,45.09170000,-93.17020000,2
10186,1,Shawanaga First Nation,45.51290000,-80.27360000,2
10187,152,Iroquois NWR Headquarters,43.11270000,-78.40400000,2
10188,350,Cheyenne Bottoms TNC,38.49850000,-98.74430000,2
10189,113,WUR Heemskerk infiltratiegebied Kieftenvlak,52.50640000,4.60070000,2
10190,113,WUR Castricum Ringbaan,52.54080000,4.61490000,2
10191,2,Forest Glen,46.47240000,-60.90940000,2
10192,350,Cheyenne Bottoms KWEC,38.44030000,-98.62960000,2
10193,213,ALF-CA,34.31840000,-118.92370000,2
10194,35,Cleveland Museum of Natural History,41.51120000,-81.61350000,2
10195,48,Wills Mountain,39.68370000,-78.77040000,2
10196,210,MDC PIGEONHILL,39.67430000,-94.77740000,2
10197,210,MDC HARTELL,39.60130000,-94.40140000,2
10198,210,MDC COLOMA,39.57120000,-93.59020000,2
10199,210,MDC PURDIN,39.94180000,-93.11360000,2
10200,281,ROFI1,39.26030000,-105.63450000,1
10201,210,MDC COLLEGEMOUND,39.62330000,-92.55650000,2
10202,210,MDC HUNNEWELL,39.71110000,-91.88280000,2
10203,281,ROFI2,39.19970000,-106.01600000,1
10204,210,MDC ANDERSON,39.60310000,-91.23610000,2
10205,48,Mount'n'Meadow,41.03260000,-74.98320000,2
10206,48,DuPont Environmental Education Center,39.72330000,-75.56060000,2
10207,48,Restore Native Plants,41.04130000,-74.25620000,2
10208,48,Buck Run,39.94150000,-75.80770000,2
10209,48,Franklin Parker ,39.79340000,-74.49850000,2
10210,281,ROFI3,39.43260000,-105.39290000,1
10211,1,Grundy,45.91770000,-80.55920000,2
10212,123,44_Feuerschiff FS1,54.18010000,7.45540000,2
10213,290,Bellamy ,36.49490000,-87.57230000,2
10214,1,Lennox OPG,44.14560000,-76.84480000,2
10215,312,Isla Masocarit,26.40000000,-109.23940000,2
10216,234,Madison Audubon - Goose Pond Sanctuary,43.31900000,-89.34280000,2
10217,321,RUG Linnaeusborg,53.24140000,6.53910000,2
10218,1,Sandy Island,45.27900000,-80.25420000,2
10219,191,Tsawwassen First Nation,49.04420000,-123.10410000,2
10220,48,Thayerville Fire Tower,39.51930000,-79.30150000,2
10221,48,High Rock Fire Tower,39.54440000,-79.09650000,1
10222,48,Town Hill Fire Tower,39.69050000,-78.40670000,2
10223,48,LACK04,41.44940000,-74.99150000,2
10224,165,Lowe Foundation,41.95510000,-85.98490000,2
10225,113,WUR Ankerpark,52.95720000,4.77530000,2
10226,1,Hentz,42.60000000,-81.45330000,2
10227,273,Boundary Bay Field,49.05970000,-123.02480000,2
10228,337,3603 296th Lane - Oysterville 98641,46.51670000,-124.02690000,2
10229,125,Laguna Kai,-23.49440000,-58.51340000,2
10230,294,Corrie Island,-32.68430000,152.13710000,2
10231,48,Yeany's Maple,41.47050000,-79.12240000,1
10232,48,Phillips Exeter Academy,42.97880000,-70.94950000,2
10233,336,Protection Island,49.17090000,-123.91810000,2
10234,294,Davies Point,-32.69060000,151.96980000,2
10235,336,WilsonCreek,49.43710000,-123.71040000,2
10236,57,Agrosavia_Doble Proposito,4.06330000,-73.45750000,1
10237,57,Agrosavia_Naranja-Agrodiverso,4.05930000,-73.46080000,1
10238,57,Agrosavia_Administracion,4.05820000,-73.46640000,1
10239,57,Agrosavia_Investigadores,4.06190000,-73.46400000,2
10240,366,Hawk Mountain Sanctuary,40.63860000,-76.01830000,2
10241,357,Ensenada - Estero Beach Hotel,31.77760000,-116.61810000,2
10243,348,Zoo Atlanta,33.73280000,-84.36930000,2
10244,310,Delaware Museum of Nature & Science,39.79850000,-75.61010000,2
10245,156,Lake St. Clair Metropark,42.57280000,-82.79640000,2
10246,113,WUR Den Oever MEA,52.93350000,5.03920000,2
10247,213,Rogue River Preserve - OR,42.54260000,-122.84490000,2
10248,306,ColonyFarmRegionalPark,49.23990000,-122.79760000,2
10249,383,MIDD,39.40660000,-81.20370000,2
10250,385,AAOA rooftop,29.95060000,-90.06300000,2
10251,191,Sidney Island,48.63780000,-123.33930000,2
10252,57,La Soledad,4.62520000,-74.07610000,1
10253,213,Cold Water Rest Area-ID,42.61390000,-113.14590000,2
10254,336,SalmonRiverEstuary,50.37900000,-125.95290000,2
10255,336,CluxeweEstuary,50.61520000,-127.18260000,2
10256,336,EnglishmanEstuary,49.32640000,-124.29670000,2
10257,336,Courtenay,49.68280000,-124.97920000,2
10258,113,WUR Texel NIOZ,53.00300000,4.78940000,2
10259,390,OT1-E05-HUDSON NORTH,39.96900000,-72.71760000,2
10260,336,CowichanEstuary,48.76450000,-123.62190000,2
10261,234,Milwaukee Zoo,43.03430000,-88.03450000,2
10262,373,McGill_Bird_Observatory,45.43070000,-73.93850000,2
10263,213,McCauley Butte - Missoula - MT,46.84110000,-114.08390000,2
10264,357,Golfo de Santa Clara - RV Park,31.68500000,-114.50250000,2
10265,48,King Road,41.77610000,-79.92830000,2
10266,390,SE_Light_434,41.15310000,-71.55140000,2
10267,308,Rooftop of Flint Farmers Market,43.01760000,-83.68690000,2
10268,303,Delta Shorebird Project Receiver,33.44350000,-90.62090000,2
10269,336,Sandspit,53.24340000,-131.82800000,2
10270,217,Wenduine,51.29410000,3.07080000,2
10271,336,Masset,54.01360000,-132.13810000,2
10272,336,Cordova,60.40760000,-145.50520000,2
10273,253,Caesar's Head,35.10570000,-82.62610000,2
10274,64,Navarre,41.58840000,-83.06280000,1
10275,165,Sarett Nature Center,42.15640000,-86.38000000,2
10276,165,Tomashefsky,42.10370000,-86.21990000,2
10277,390,Black_Rock_434,41.14800000,-71.59010000,2
10278,156,Wigwam Bay SWA,44.00150000,-83.75620000,2
10279,409,Harrier Meadow,40.78620000,-74.12110000,2
10280,48,Cate's Hill,44.51360000,-71.18720000,2
10281,1,Old Cut Dyke,42.58330000,-80.39660000,2
10282,123,Rysum 1,53.36870000,7.01130000,2
10283,76,Norderney 2,53.71790000,7.17710000,2
10284,76,Norderney 3,53.71190000,7.20040000,2
10285,76,Norderney 4,53.71240000,7.27580000,2
10286,76,Norderney 5,53.71790000,7.30080000,2
10287,1,North Gwillimbury,44.28030000,-79.47350000,2
10288,415,Safari,52.13560000,5.02630000,2
10289,213,Rock Creek Confluence FVLT-MT,46.72430000,-113.66910000,2
10290,310,University of Delaware,39.68070000,-75.75100000,2
10291,165,Taylor Armory,42.21450000,-83.29090000,2
10292,165,Waterloo State Recreation Area,42.33330000,-84.10700000,2
10293,48,Buck and Doe,39.92400000,-75.81550000,1
10294,57,Parque Jaime Duque - Bogota,4.94700000,-73.96310000,2
10295,235,Marillana,-22.60250000,119.20520000,1
10296,235,Marillana,-22.62380000,119.20580000,1
10297,48,Hamilton Sanctuary,43.86700000,-69.88840000,2
10298,384,Abbey Brook,42.13480000,-72.57330000,2
10299,367,Ash Log,36.26090000,-84.31100000,2
10300,48,Missisquoi Bay NWR,44.96560000,-73.19980000,2
10301,48,Shelburne Farms,44.39860000,-73.26860000,2
10302,357,8 bombas,27.65620000,-113.95500000,2
10303,9,PKR_hq,42.79850000,-70.84920000,1
10304,9,PKR_lot1,42.79030000,-70.80870000,1
10305,10,BERL,44.06570000,-64.60740000,1
10306,10,Borgles,44.75330000,-62.71590000,1
10307,10,BP01,43.46740000,-65.74920000,1
10308,10,BPLH1,43.46000000,-65.74000000,1
10309,10,BPN1,43.47924000,-65.75643000,1
10310,10,BPN2,43.47681000,-65.75408000,1
10311,10,BPN3,43.47473000,-65.75690000,1
10312,10,BPnorthomni,43.46740000,-65.74900000,1
10313,10,BPwestomni,43.46240000,-65.74960000,1
10314,10,BPY2,43.45769000,-65.74360000,1
10315,10,CANSOSPR,45.31955700,-60.96811300,1
10316,10,CTRYI,45.09990000,-61.54230000,1
10317,10,DRUM,45.15347000,-61.61842000,1
10318,10,JORD,43.69132500,-65.23532500,1
10319,10,KEJI,43.82905900,-64.84074300,1
10320,10,KING,44.26739000,-64.25949800,1
10321,10,PTFE,45.24909000,-61.22330000,1
10322,10,Sable East Colony,43.96027000,-59.78289000,1
10323,10,SBMS,43.93274500,-60.00614300,1
10324,10,SBWL1,43.93210000,-60.02280000,1
10325,10,Seal East,43.40010000,-66.01240000,1
10326,10,SEALEAST,43.40002000,-66.01247000,1
10327,10,SEALSOUTH,43.39482000,-66.01452000,1
10328,10,SEALWEST,43.40806000,-66.02092000,1
10329,10,SONO,45.05460000,-61.89586000,1
10330,10,TAYL,44.80572000,-62.55985000,1
10331,11,Gilsland Farm,43.70629300,-70.24515000,1
10332,11,LONG 2015,43.68810000,-70.15320000,1
10333,11,MONHEGAN,43.76417100,-69.31592700,1
10334,11,NASH,44.46459400,-67.74689100,1
10335,11,PETITMANAN,44.36755000,-67.86499200,1
10336,11,SEGUIN,43.70862500,-69.75783600,1
10337,11,Bowdoin CSC 2015,43.78798000,-69.95812300,1
10338,12,METINIC,43.89380000,-69.12552000,1
10339,12,PMP2,44.40847000,-67.90502000,1
10340,12,RCARS,43.33510000,-70.54916000,1
10341,13,AMHRST,45.79293500,-64.28380700,1
10342,13,AMHRST,45.79300000,-64.28400000,1
10343,13,AVPRT,45.10900000,-64.22700000,1
10344,13,BEAUB,45.84800000,-64.28500000,1
10345,13,COBEQUID1,45.37300000,-63.52800000,1
10346,13,COBEQUID2,45.37400000,-63.48000000,1
10347,13,COBEQUID3,45.36600000,-63.44700000,1
10348,13,COBEQUID3,45.36610000,-63.44690000,1
10349,13,CPENR,45.59520000,-64.78050000,1
10350,13,CPENRAG,45.59441700,-64.77946300,1
10351,13,EVANGEL,45.13900000,-64.31500000,1
10352,13,FTBLC,45.36200000,-63.40500000,1
10353,13,FTBLC,45.36254300,-63.40466600,1
10354,13,FTBLC,45.36420000,-63.41270000,1
10355,13,HPWLF,45.81600000,-64.57900000,1
10356,13,HPWLF,45.81612700,-64.57861000,1
10357,13,HPWLR,45.13850000,-64.31480000,1
10358,13,HPWLR,45.82500000,-64.57300000,1
10359,13,HPWLR,45.82532000,-64.57291000,1
10360,13,JOGG,45.69479900,-64.44980200,1
10361,13,JOGG,45.69500000,-64.45000000,1
10362,13,JOHNS,45.80275200,-64.49122200,1
10363,13,JONSONSMILLS,45.83425800,-64.51203400,1
10364,13,MAIT,45.33379400,-63.54074500,1
10365,13,Mal Bay South,47.94740000,-64.48610000,1
10366,13,MARYP,45.72800000,-64.67100000,1
10367,13,MARYP,45.72800000,-64.67000000,1
10368,13,MARYP,45.72808000,-64.67037800,1
10369,13,MILLCREEK,45.77100000,-64.37700000,1
10370,13,Neguac,47.27900000,-64.96090000,1
10371,13,NHRB,45.08959700,-64.36978800,1
10372,13,PARRS,45.37174500,-64.40334700,1
10373,13,PORTP,45.13790000,-64.37940000,1
10374,13,PORTP,45.13800000,-64.37900000,1
10375,13,SELMA,45.33400000,-63.54100000,1
10376,13,WESTBAY,45.37200000,-64.40300000,1
10377,13,WNDSR,44.99600000,-64.15400000,1
10378,13,WNDSR,44.99640000,-64.15400000,1
10379,14,AVNJ,39.09190000,-74.71790000,1
10380,14,CONY,40.57374500,-73.97742800,2
10381,14,CRPR,17.97310000,-67.16320000,1
10382,14,CUPR,18.30710000,-65.28180000,1
10383,14,ELPT,41.29330000,-70.19720000,1
10384,14,ELPT,41.29340000,-70.19720000,1
10385,14,ELPT,41.29410000,-70.19440000,1
10386,14,GTPF,41.64812000,-70.27901000,1
10387,14,KCBS,24.85940000,-77.90410000,1
10388,14,LHPR,18.47880000,-66.51910000,1
10389,14,MIPR,17.96890000,-67.04370000,1
10390,14,NBNJ,39.42940000,-74.34050000,1
10391,14,PARR,37.57369000,-75.61736000,2
10392,14,WING,41.68067500,-70.66154000,2
10393,16,FORDRIDGE,NULL,NULL,1
10394,16,HOOPESTON,NULL,NULL,1
10395,16,KICKAPOO,40.14134170,-87.74756390,1
10396,16,MIDFORK1,40.38570000,-87.97970000,1
10397,16,RAYS,39.04500000,-86.80777800,1
10398,17,CML,43.07183600,-70.70954700,1
10399,17,White Island,42.96850000,-70.62530000,1
10400,18,CRANE,41.62323000,-83.22635000,1
10401,18,Eagle Nest 2,41.62296000,-83.24540000,1
10402,18,Pickerel Creek,41.43642000,-82.96352000,1
10403,18,Pool9,41.63743000,-83.21525000,1
10404,18,Resthaven,41.40088000,-82.82635000,1
10405,18,Winous Point,41.46640000,-82.98730000,1
10406,19,Font Hill IRI,18.04430000,-77.93920000,1
10407,19,Font Hill LIX,18.03890000,-77.93570000,1
10408,19,Font Hill MII,18.04050000,-77.94090000,1
10409,24,R1,52.25820000,-106.05060000,1
10410,24,R2,52.25830000,-106.05060000,1
10411,24,S01,52.34760000,-105.93910000,1
10412,24,S02,52.28250000,-105.88410000,1
10413,24,S03,52.23140000,-105.88590000,1
10414,24,S05,52.14540000,-106.09810000,1
10415,24,S06,52.23790000,-106.12320000,1
10416,24,S07,52.31430000,-106.14690000,1
10417,24,S08,52.35440000,-106.10090000,1
10418,26,AMMAR,45.85430000,-64.18220000,1
10419,26,AMPNT,45.77670000,-64.27750000,1
10420,26,COLONY,45.89656700,-64.34399400,1
10421,26,COLONY1 ,45.89650000,-64.34390000,1
10422,26,COLONY2,45.90500000,-64.33930000,1
10423,26,DIKES,45.88760000,-64.33880000,1
10424,26,Eddie rd. ,45.84669900,-64.22413500,1
10425,26,EDDY,45.84670000,-64.22430000,1
10426,26,Hospital Loop Road,45.86730000,-64.36360000,1
10427,26,LOWERW,45.90265100,-64.33336500,1
10428,26,Marsh Landings,45.85411400,-64.18243300,1
10429,26,MISSA,45.89390000,-64.23490000,1
10430,26,SCHOOL,45.91020000,-64.36930000,1
10431,26,SE,45.89060000,-64.35360000,1
10432,26,TINTA,45.93790000,-64.31780000,1
10433,26,UPTAN,45.90960000,-64.30720000,1
10434,26,WCOCK,45.87380000,-64.34010000,1
10435,29,Kiawah Island Club,32.61260000,-80.09920000,1
10436,31,East Timbalier,29.06680000,-90.32770000,1
10437,31,Peveto Woods,29.75770000,-93.60390000,1
10438,31,Sabine NWR,29.88920000,-93.40210000,1
10439,31,East Grand Terre,29.31150000,-89.86320000,1
10440,266,Rhinelander Experimental Forest,45.67820000,-89.63000000,2
10441,266,UW Potato Farm,45.64980000,-89.58320000,2
10442,195,ZecBessonne-1,47.53470000,-72.49030000,1
10443,195,ZecBessonne-2,47.43860000,-72.36060000,1
10444,250,LAMB,51.67080000,-106.02020000,1
10445,31,Lafayette LDWF rooftop,30.22130000,-92.05470000,2
10446,48,Ipswich River Sanctuary,42.63100000,-70.92100000,2
10447,48,Drumlin Farm 2,42.40730000,-71.33170000,2
10448,48,Drumlin Farm,42.40720000,-71.33150000,1
10449,48,Buck Run 2,39.94000000,-75.80940000,1
10450,281,GPCD Greenbush,37.51260000,-94.99230000,2
10451,281,GPCD Tallgrass Prairie,38.47950000,-96.58970000,2
10452,384,Blunt Park,42.13000000,-72.55150000,1
10453,281,GPCD Konza,39.08790000,-96.54480000,2
10454,56,Horseshoe Pond Meters Site,42.16000000,-80.08020000,2
10455,56,South Pier Maintenance Pole,42.14640000,-80.07810000,2
10456,1,QUBS Birdhouse,44.64390000,-76.33510000,2
10457,250,Bridgeman,51.67680000,-106.07310000,1
10458,1,TREES,17.05260000,-88.56540000,1
10459,425,Sarstún,15.88660000,-88.94040000,2
10460,425,La Firmeza Sierra Caral,15.40710000,-88.69620000,2
10461,424,FortWhyte Alive,49.82010000,-97.22400000,2
10462,424,Clifton's Residence,49.73400000,-97.13160000,2
10463,424,Oak Hammock Marsh,50.17370000,-97.13280000,2
10464,281,GPCD Ruth Bader Ginsburg,37.76500000,-104.43310000,2
10465,357,Isla San Roque,27.14590000,-114.37890000,2
10466,425,Punta de Manabique,15.93330000,-88.59620000,2
10467,281,GPCD Alamosa NWR,37.45880000,-105.80270000,2
10468,307,Sandwich Bay Bird Obs,51.26810000,1.37450000,1
10469,354,Chad,40.32750000,-90.08640000,2
10470,354,Dixon Waterfowl Refuge-North,41.23810000,-89.33150000,2
10471,354,Illinois Beach State Park,42.46610000,-87.80910000,2
10472,354,Homer Glen,41.60820000,-87.93320000,2
10473,395,Woldsee,53.15700000,8.12400000,2
10474,427,Hanging Rock,37.50450000,-80.45300000,2
10475,421,McQueen Slough,55.79570000,-120.15370000,1
10476,417,GB-Alexander,45.05000000,-80.03220000,2
10477,417,GB-Harris,45.03170000,-80.00720000,2
10478,417,GB-Zimmerman,45.02300000,-80.00400000,2
10479,417,GB-Go Home,45.01060000,-79.91950000,2
10480,421,Torwood,56.13330000,-122.40380000,2
10481,359,Jackfish Lake,53.12950000,-108.43150000,2
10482,421,Bullhead Mountain,56.04460000,-122.13340000,2
10483,253,Silver Bluff Audubon Center and Sanctuary ,33.32440000,-81.84590000,2
10484,359,Murray Lake Farm,53.05840000,-108.32640000,2
10485,113,WUR IJmuiden Eneco,52.46230000,4.57310000,2
10486,354,Chain o' Lakes State Park,42.46680000,-88.19060000,2
10487,113,WUR Hoenderdaell,52.86130000,4.83900000,2
10488,189,Grass Lake,41.62000000,-85.29880000,2
10489,189,Wesdorp/Middlebury,41.68010000,-85.70930000,2
10490,195,Yanienhonhndeh-1,47.50290000,-72.10020000,1
10491,113,WUR Van Ewijcksluis,52.88660000,4.87600000,2
10492,417,GB-Tadenac,45.03590000,-79.99900000,2
10493,290,Pearson Cave,36.55110000,-83.01790000,2
10494,391,Navarre Marsh,41.58840000,-83.06280000,2
10495,195,Mobile-1,47.64960000,-72.29100000,1
10496,337,Bullard's Bridge Motus Tower,43.14720000,-124.39570000,2
10497,337,2373 Tokeland Rd - Tokeland - WA 98590,46.72430000,-124.02140000,2
10498,387,Finca Cristina,9.84170000,-83.84830000,2
10499,421,Mugaha Marsh,55.39830000,-123.21160000,2
10500,421,Powder King,55.36420000,-122.61030000,2
10501,421,Hansen-Paterson Farm,55.72660000,-120.48400000,2
10502,390,BIWF_Turbine1,41.12560000,-71.50750000,1
10503,113,WUR Zurich,53.09730000,5.38100000,2
10504,281,GPCD Arapaho NWR,40.61780000,-106.27680000,2
10505,57,Balcones,4.88690000,-74.47130000,1
10506,48,Lynnfield MS,42.53760000,-71.05170000,2
10507,48,Fort River,42.34040000,-72.56680000,2
10508,307,Honiton,50.80180000,-3.18440000,1
10509,247,Canebrake,35.73460000,-118.16570000,2
10510,10,White_Birch,45.96930000,-64.33370000,1
10511,113,WUR Afsluitdijk Zuid,52.99380000,5.15460000,2
10512,113,WUR Afsluitdijk Noord,53.01400000,5.19320000,2
10513,213,Salmon IDFG HQ,45.19990000,-113.89700000,2
10514,406,Dowler Ridge Tower,39.35470000,-82.23000000,2
10515,419,Great Bay Monarchs,43.07520000,-70.83940000,2
10516,10,Sable Island - Mines Camp,43.93430000,-60.04750000,1
10517,290,Bridgestone Nashville,36.15900000,-86.77570000,1
10518,433,Rybachy - Russia,55.15410000,20.85710000,2
10519,48,Friedline Field,40.13490000,-79.28620000,2
10520,48,Brownfield,39.81150000,-79.69100000,2
10521,407,CV_A01,36.89650000,-75.49170000,2
10522,407,CV_A02,36.88680000,-75.49150000,2
10523,213,Kalsta Ranch - Glen MT,45.52020000,-112.69080000,2
10524,281,GPCD Quivira NWR,38.07590000,-98.48800000,2
10525,78,Soley Cove,45.40250000,-63.99030000,2
10526,373,Bois de la Roche 1,45.44630000,-73.94100000,2
10527,435,SLZ South expansion,38.62920000,-90.29030000,2
10528,373,Bois de la Roche 2,45.43940000,-73.93970000,2
10529,281,GPCD Bluestem Gold,37.86800000,-96.82330000,2
10530,365,Wheldrake,53.89380000,-0.95050000,2
10531,68,Daring Lake,64.86980000,-111.58030000,2
10532,373,Senneville Farm,45.42960000,-73.96280000,2
10533,165,Whitehouse Nature Center,42.24250000,-84.73540000,2
10534,165,Ott Biological Preserve,42.30700000,-85.12760000,2
10535,165,Bay City Army National Guard,43.62310000,-83.95110000,2
10536,165,John Ball Zoo,42.96300000,-85.70740000,2
10537,213,Market Lake WMA - Roberts - ID,43.74340000,-112.11980000,2
10538,213,Deer Parks WMU - Menan - ID,43.77150000,-111.99540000,2
10539,439,House Krynica Morska,54.37290000,19.42490000,2
10540,439,Krynica Morska - Camping site,54.38060000,19.42410000,2
10541,165,Gladstone Army National Guard,45.83810000,-87.03380000,2
10542,165,Marquette National Guard Armory,46.56320000,-87.41130000,2
10543,281,GPCD NEON CPER,40.81550000,-104.74530000,2
10544,48,Hager,43.65860000,-71.58910000,2
10545,394,Piermont,39.48530000,-114.54950000,2
10546,165,Sault Ste. Marie Army National Guard,46.48860000,-84.31390000,2
10547,394,Sac Pass,39.17330000,-114.30210000,2
10548,394,GRBA,39.00520000,-114.21590000,2
10549,394,Goff,38.91820000,-114.40180000,2
10550,394,North Spring Valley,39.68160000,-114.58990000,2
10551,394,Cleve Creek,39.22650000,-114.53480000,2
10552,48,Roberts Farm Preserve,44.21050000,-70.56940000,2
10553,306,Firehall10,49.25890000,-123.23770000,2
10554,76,Woldsee 1,53.15480000,8.11850000,1
10555,395,Woldsee 1,53.15480000,8.11850000,2
10556,113,WUR Ventes Ragas,55.34110000,21.19030000,2
10557,165,Camp Grayling,44.62430000,-84.78600000,2
10558,387,Puerto Jiménez,8.53420000,-83.30640000,2
10559,387,Lomas del Sierpe,8.76420000,-83.29540000,2
10560,1,Brock University,43.11860000,-79.24710000,2
10561,48,Cape Horn,44.53880000,-71.52280000,2
10562,48,Crystal Mtn,44.94430000,-71.20870000,2
10563,406,Radar Hill Ohio University,39.32410000,-82.12490000,2
10564,443,Nashville Zoo at Grassmere,36.08580000,-86.74540000,2
10565,346,Morgan's Rock,11.30760000,-85.91740000,2
10566,394,Middle Spring Valley,39.10420000,-114.44360000,2
10567,10,HammondRiver,45.46520000,-65.89590000,2
10568,411,Kean Skylands,41.03890000,-74.54590000,2
10569,48,Center at Pomfret,41.87310000,-71.94500000,2
10570,197,VonZiegesar,45.56570000,-66.00640000,2
10571,213,Manley Ranch - MT,46.73330000,-113.07690000,2
10572,409,1-E Landfill Meadowlands,40.77420000,-74.11880000,2
10573,354,Dixon Waterfowl Refuge-Central,41.21710000,-89.32260000,2
10574,354,Dixon Waterfowl Refuge-South,41.20880000,-89.32350000,2
10575,354,Banner Marsh State Fish & Wildllife Area-East,40.53520000,-89.83370000,2
10576,354,Banner Marsh State Fish & Wildllife Area-West,40.53040000,-89.83960000,2
10577,354,Spunky Bottoms,39.90280000,-90.57690000,2
10578,418,Lackawaxen ,41.48140000,-74.98220000,2
10579,418,Rosendale,41.87800000,-74.06750000,2
10580,1,Sharps Hill,44.19620000,-79.76810000,2
10581,277,Mid Plot,43.93990000,-71.73520000,1
10582,277,High Plot,43.94350000,-71.74540000,1
10583,449,Wildcat,40.93110000,-74.54570000,2
10584,357,Bahia Santa Maria (Patolandia),25.02650000,-107.98760000,2
10585,1,Friday Harbour,44.38490000,-79.55010000,2
10586,332,Carpenter Main Campus,44.76610000,-92.81360000,2
10587,415,Silo Sint Maarten,52.77300000,4.74870000,2
10588,306,Richmond,49.18210000,-123.07810000,2
10589,281,GPCD Crane Trust,40.78850000,-98.46490000,2
10590,344,Swallows in the Window Barn,35.94690000,-83.68800000,2
10591,213,O'Connor Ranch MT,47.02680000,-113.20940000,2
10592,281,GPCD Rowe Sanctuary,40.66150000,-98.91890000,2
10593,446,Grizzly Island,38.13070000,-121.98120000,2
10594,57,Ibague Jardin Botanico,4.44750000,-75.22530000,1
10595,253,Fripp Island,32.30950000,-80.50120000,2
10596,213,Peterson Ranch - MT,46.65000000,-113.26970000,2
10597,381,Tatlayoko-Skinner Ridge,51.70190000,-124.41160000,2
10598,113,WUR Benacre Pump Station,52.39990000,1.72700000,2
10599,4,St Vincent NWR - FL,29.63700000,-85.10260000,2
10600,213,Troy's - Florence MT,46.67490000,-114.10990000,2
10601,57,Selva Negra Ecolodge,12.99660000,-85.90860000,2
10602,307,Halvergate Marshes,52.58540000,1.63740000,1
10603,150,Sapelo Lighthouse,31.39130000,-81.28570000,2
10604,373,Macdonald Campus of McGill University,45.40790000,-73.93900000,2
10605,48,Hirundo Wildlife Refuge,44.99000000,-68.78220000,2
10606,48,Farm Cove Mt.,45.20580000,-67.88380000,2
10607,48,Bull Hill ,45.09270000,-69.09030000,2
10608,57,Casa Azul,11.25510000,-73.22490000,1
10609,78,Borden-Carleton,46.26920000,-63.70160000,1
10610,290,Bear Hollow Mountain WMA,35.08270000,-86.05590000,2
10611,434,Rocky Point Banding Station,48.32040000,-123.54680000,1
10612,223,Femmeryd,56.24230000,15.96730000,2
10613,332,Sax Zim Bog Welcome Center 2.0,47.14640000,-92.72690000,2
10614,57,Carepa (casa Bran),7.73880000,-76.69740000,2
10615,415,Milksilo - Burgerbrug,52.75180000,4.70770000,2
10616,446,Yolo Bypass,38.57120000,-121.61460000,2
10617,113,WUR Paal 21,53.10760000,4.76580000,2
10618,253,Beidler Forest / DCCTC,33.14930000,-80.38860000,2
10619,1,Wasaga,44.54340000,-79.97970000,2
10620,457,Antikythira,35.86490000,23.30960000,2
10621,290,Bell Hill North,36.29870000,-85.73350000,2
10622,405,Reflection Riding,35.00970000,-85.36470000,2
10623,458,Pixley NWR,35.90630000,-119.38900000,2
10624,387,Pitilla,10.99370000,-85.42410000,2
10625,281,GPCD SPLT,37.79560000,-102.86060000,2
10626,281,GPCD Smoky Valley,38.85370000,-100.97340000,2
10627,290,Shady Valley TN,36.50910000,-81.94740000,2
10628,459,Big Marsh FCEC,41.68550000,-87.57320000,2
10629,4,Pocosin Lakes NWR,35.73700000,-76.51440000,2
10630,357,8 bombas - Nido,27.67000000,-113.94030000,1
10631,357,8 bombas - percha,27.68590000,-113.92620000,1
10632,290,LBL Brandon Spring,36.56020000,-87.91560000,2
10633,453,Daecheongdo,37.83360000,124.70060000,2
10634,48,Petit Manan Point,44.41160000,-67.90500000,2
10635,387,Veragua Rainforest,9.92660000,-83.19060000,2
10636,462,Rush Ranch ,38.20790000,-122.03040000,2
10637,467,McNary NWR - WA,46.20680000,-118.95830000,2
10638,387,Paraíso Quetzal,9.64440000,-83.85040000,2
10639,446,Eden Landing,37.60270000,-122.11650000,2
10640,307,HR1_test_site,52.10660000,-2.68030000,1
10641,357,Guerrero Negro - Puerto Viejo,28.03570000,-114.11780000,2
10642,290,Warner Parks Harpeth Station (HHGC),36.05690000,-86.88560000,2
10643,458,Bird Haven,39.41520000,-121.91070000,2
10644,458,Montna Farms,38.94420000,-121.60790000,2
10645,458,Staten Island,38.15670000,-121.50530000,2
10646,357,Don Jorge - Mazatlán,23.15360000,-106.30590000,2
10647,165,Jackson College,42.16390000,-84.40570000,2
10648,471,Fox Forest WMA,38.90360000,-79.86360000,2
10649,458,Colusa NWR,39.16880000,-122.05900000,2
10650,357,Ceuta - Sinaloa,23.90460000,-106.95870000,2
10651,387,Estación Biológica Maritza,10.95760000,-85.49660000,2
10652,1,Des Joachims OPG,46.18220000,-77.69760000,2
10653,281,GPCD Mimms Ranch,30.33500000,-104.04240000,2
10654,193,Indiana Dunes State Park,41.65630000,-87.06220000,2
10655,458,Napa Sonoma Marsh,38.19340000,-122.34830000,2
10656,458,Cosumnes River Preserve,38.26990000,-121.43000000,2
10657,458,Sacramento NWR,39.42980000,-122.18400000,2
10658,458,Conaway Ranch,38.64770000,-121.66670000,2
10659,458,Merced NWR,37.17740000,-120.62660000,2
10660,31,Point-Aux-Chenes Wil,29.45570000,-90.47160000,1
10661,31,Rock E,29.63730000,-92.57030000,1
10662,31,Rock W,29.70700000,-92.83070000,1
10663,31,Wisner,29.12300000,-90.16050000,1
10664,32,MILLBROOK,41.27170000,-70.12830000,1
10665,32,MDR,43.96893000,-68.12830000,1
10666,32,MDR,43.96905000,-68.12820000,1
10667,32,SHIP,44.23452000,-68.43924000,1
10668,32,CUTLER,44.62613000,-67.28593000,1
10669,32,CUTLER,44.62650000,-67.28480000,1
10670,32,MTDESERTISL,44.31070000,-68.34510000,1
10671,32,CTN,41.42741000,-70.70211900,1
10672,32,GOETH,41.44633000,-70.66912000,1
10673,32,NAUSH,41.46883100,-70.75752000,1
10674,32,HELLCAT,42.74050000,-70.79721000,1
10675,35,PARC CMNH,40.44290000,-79.94980000,2
10676,35,PARC Shady Nook,40.13500000,-79.28540000,1
10677,35,PARC Airglow,40.13090000,-79.16410000,1
10678,35,PARC Binkey,40.25090000,-79.32970000,1
10679,35,PARC SGL203,40.63680000,-80.12560000,1
10680,35,PARC Wildlife Center,40.49010000,-79.83380000,1
10681,35,PARC Deer Lakes,40.62700000,-79.80890000,1
10682,36,UOttawa BCCH mobile,45.30625500,-75.81656400,1
10683,37,Napanee LOSH,44.34890000,-76.89080000,2
10684,38,East Point,51.23010000,-79.71240000,1
10685,38,Halfway Point,51.87520000,-80.79730000,1
10686,38,Halfway Point,51.87530000,-80.79730000,1
10687,38,Longridge,51.82310000,-80.69120000,1
10688,38,Longridge,51.82440000,-80.69090000,1
10689,38,Longridge,51.82460000,-80.69090000,1
10690,38,Netitishi,51.29130000,-80.11680000,1
10691,38,North Bluff,51.48390000,-80.45000000,1
10692,38,Piskwamish,51.65790000,-80.56780000,1
10693,38,Piskwamish,51.65800000,-80.56790000,1
10694,38,Piskwamish,51.65820000,-80.56690000,1
10695,38,Washiskogau Creek,51.15450000,-79.81370000,1
10696,40,Burntpoint,55.24160000,-84.31820000,2
10697,40,Burntpoint,55.24174000,-84.31778000,1
10698,40,Churchill-Bird Cove,58.75530000,-93.90220000,1
10699,40,Churchill-Fen,58.67880000,-93.83640000,1
10700,40,COATSI,62.85180000,-82.48480000,1
10701,40,EASTBAY,63.98730000,-81.69540000,2
10702,40,NANUK,57.12230000,-91.67010000,1
10703,47,Bivalve,39.23436500,-75.01466700,1
10704,47,BRIG,39.41890000,-74.35070000,1
10705,47,Dads Place,39.02840000,-74.80150000,1
10706,47,Reed,39.12680000,-74.89130000,1
10707,47,RUTG,39.50970000,-74.32280000,1
10708,47,SIBD,39.16150000,-74.70320000,1
10709,54,AFR Ford Ridge,40.51200000,-88.32770000,1
10710,54,Coon,39.13985000,-86.66133000,1
10711,54,HBL Blackball,41.32000000,-89.03000000,1
10712,54,HCO Coon,39.12000000,-86.65000000,1
10713,54,HDX Dixon,37.17000000,-86.09000000,1
10714,54,HEN Endless,38.68000000,-86.24000000,1
10715,54,HHA Hannibal,39.68000000,-91.35000000,1
10716,54,HJH Jug Hole,38.15000000,-86.23000000,1
10717,54,Hoopeston,40.38070000,-87.82520000,1
10718,54,HPR Preble,39.85000000,-84.54000000,1
10719,54,HRA Ray's,39.04000000,-86.79000000,1
10720,54,HSA Saltpeter Bat,38.36000000,-83.11000000,1
10721,54,HTD Twin Domes,38.43000000,-86.23000000,1
10722,54,HWA Wallier,37.97000000,-86.03000000,1
10723,54,HWY Wyandotte,38.22890000,-86.29420000,1
10724,54,S10 Oxbow,39.11390000,-84.84663700,1
10725,54,S2 Chinook,39.47760400,-87.21225000,1
10726,54,OMM Midwest Motors,38.73833000,-85.40170300,1
10727,54,WNW Cole,38.33634600,-86.48097400,1
10728,54,N1 Kern,41.09704700,-86.22387600,1
10729,54,N2 Leedy,41.24851400,-86.03752800,1
10730,54,N4 Tri-County,41.35740400,-85.67957500,1
10731,54,N5 Chain O' Lakes,41.33849400,-85.36535000,1
10732,54,N6 Hurley,41.49954100,-85.14204600,1
10733,54,N7 Douglas Woods,41.54841700,-84.83280600,1
10734,54,N8 Schultz,41.44713000,-84.51176000,1
10735,54,N9 Riefers,41.44719900,-84.21791500,1
10736,54,N10 Zitzelberger,41.45272900,-83.78575900,1
10737,54,S9 Versailles,39.06280000,-85.20360000,1
10738,54,WNE Lost Creek,38.30506500,-86.17083100,1
10739,54,OGW Governor Whitcom,37.89496700,-86.60144500,1
10740,54,WSW Wiseman,38.19981100,-86.43072900,1
10741,54,WHQ O'Bannon Woods,38.19998400,-86.26842900,1
10742,54,WIN Wyandotte cave,38.23000000,-86.30000000,1
10743,54,WSE Homestead,38.10566000,-86.23673500,1
10744,54,OCF Cedar Farm,37.97647700,-86.06067400,1
10745,54,S8 Clarkson,39.06560000,-85.59810000,1
10746,54,S7 Columbus,39.20189800,-85.93949500,1
10747,54,S6 Brown County,39.16164000,-86.21988300,1
10748,54,S5 Morgan-Monroe,39.32316800,-86.41335500,1
10749,54,S4 McCormick's Creek,39.28542600,-86.72754300,1
10750,54,S3 Lieber,39.47841800,-86.88285200,1
10751,54,MIA Indy Airport,39.64828300,-86.35055900,1
10752,54,S11 Lincoln Ridge,38.96450000,-84.56130000,1
10753,54,S12 Woodland Mound,39.03540000,-84.32560000,1
10754,54,N11 Thurston,41.41200000,-83.87630000,1
10755,54,MPC Potato Creek,41.53820000,-86.36850000,1
10756,54,AMFN MIddle Fork Nor,40.39890000,-87.98030000,1
10757,54,AMFS Middle Fork Sou,40.38570000,-87.97970000,1
10758,57,Capurganá,8.63550000,-77.34860000,2
10759,57,Finca Las Palmeras,8.52590000,-76.09680000,2
10760,57,Los Vientos Coffee,4.36150000,-74.51850000,1
10761,57,Los Vientos Forest,4.36460000,-74.51640000,1
10762,59,Heislerville,39.23438200,-75.01466700,1
10763,59,Bombay Hook,39.20930000,-75.45560000,2
10764,59,Cape May NWR,38.95410000,-74.85350000,2
10765,59,Forsythe NWR,39.46480000,-74.44870000,2
10766,59,Prime Hook,38.81290000,-75.22340000,2
10767,61,Machias,44.50230000,-67.10180000,1
10768,61,White Head,44.64070000,-66.69190000,1
10769,61,Long Eddy ,44.79874000,-66.78569000,1
10770,61,Swallowtail,44.76500000,-66.73660000,1
10771,61,Southwest Head,44.59970000,-66.90500000,1
10772,62,Awktower,43.19290000,-81.31200000,1
10773,62,CP,43.18760000,-81.31300000,1
10774,62,El nina,43.19110000,-81.31970000,1
10775,62,FF North,43.18980000,-81.31650000,1
10776,62,FF South,43.18540000,-81.31550000,1
10777,62,hans,43.19270000,-81.31440000,1
10778,62,Nanoswamp,43.19130000,-81.31630000,1
10779,64,Bunkhouse 2016,41.58850000,-83.10350000,1
10780,64,Cedar Point 2,41.70160000,-83.33780000,2
10781,64,CedarPoint,41.70080000,-83.33820000,1
10782,64,Detroit River,41.11680000,-83.18950000,1
10783,64,Kellys Island,41.59959000,-82.70354000,1
10784,64,Mound March 2016,41.63072400,-83.25547800,1
10785,64,Old Woman Creek,41.37741000,-82.50851000,1
10786,64,Old Woman Creek,41.37750000,-82.50800000,1
10787,64,Resthaven,41.40090000,-82.82640000,1
10788,64,Stangee,41.61110000,-83.20320000,1
10789,64,Sterling,41.91278000,-83.33352000,1
10790,65,Nighthawk,27.54405000,-97.28475300,2
10791,65,Padre Lemon,27.23916200,-97.36073200,1
10792,65,Pintail,26.81090000,-97.46960000,1
10793,65,PortIsabel,26.07180000,-97.20130000,1
10794,72,NBBITH2,47.21280000,-66.54310000,1
10795,73,GB1,30.35950000,-88.45600000,1
10796,73,GB2,30.37390000,-88.42660000,1
10797,73,GB3,30.35970000,-88.45590000,1
10798,73,PR1,30.41560000,-88.61060000,1
10799,73,PR2,30.42980000,-88.59440000,1
10800,73,PR3,30.45450000,-88.58570000,1
10801,74,Cornish WMA,43.48080000,-72.37920000,1
10802,74,MountGrace,42.69135700,-72.35516300,1
10803,74,MountToby,42.48801200,-72.53764400,1
10804,74,SatansKingdom,42.71153000,-72.50796000,1
10805,74,Shelburne,42.60699100,-72.71656700,1
10806,75,Tanada Lake,62.41635000,-143.36635000,1
10807,75,Ruby's,62.89072000,-143.68170000,1
10808,75,Chitina,61.52237000,-144.35060000,1
10809,75,Mentasta Lakeside,62.88300000,-143.67870000,1
10810,75,Mentasta Lodge,62.88870000,-143.67660000,1
10811,75,Chistochina,62.60495000,-144.60170000,1
10812,75,Nabesna,62.50145000,-143.15200000,1
10813,75,Park HQ,62.02483000,-145.37190000,1
10814,75,Kenny Lake,61.67597000,-144.69100000,1
10815,75,Woodhams,62.72270000,-143.87760000,1
10816,76,RT1,54.18740000,7.87360000,1
10817,77,Bob,39.07731940,-74.73443270,1
10818,77,Bruce,39.03099400,-74.77609800,1
10819,77,Holgate,39.52542400,-74.27518100,1
10820,77,North Brigantine Nat,39.44454280,-74.33003430,1
10821,77,Tacey,39.76070000,-74.09933900,1
10822,78,Bouctouche,46.46161600,-64.65939800,1
10823,78,Cape Jourimain,46.16470000,-63.82600000,1
10824,78,Complexe des Deux Ri,47.51947000,-64.89219000,1
10825,78,Deux Rivieres,47.51990000,-64.89250000,1
10826,78,Inkerman ,47.67051000,-64.76247000,1
10827,78,Kellys Beach - Kouch,46.82680000,-64.91050000,1
10828,78,Lameque 1 - Petit Sh,47.87033000,-64.59972000,1
10829,78,Lameque 1 Petit Ship,47.87040000,-64.59970000,1
10830,78,Lameque 2 - Petite R,47.85290000,-64.64590000,1
10831,78,Lameque 2 Petite Riv,47.85280000,-64.64590000,1
10832,78,Maisonette,47.81450000,-65.00810000,1
10833,78,Miscou - Mal Bay Nor,47.99630000,-64.48610000,1
10834,78,Miscou Berryfield (R,47.92850000,-64.58480000,1
10835,78,Neguac,47.27900000,-65.01890000,1
10836,78,Neguac,47.27900000,-65.01890000,1
10837,78,OFF - Val Doucet 2,47.57189000,-65.32092000,1
10838,78,OFF Lord and Foy 1,47.50615000,-65.23869000,1
10839,78,OFF Lord and Foy 2,47.47285000,-65.20843000,1
10840,78,OFF Val Doucet 1,47.57528000,-65.32128000,1
10841,78,OFF_champ losier,47.56435000,-64.96078000,1
10842,78,PEINP,46.42760000,-63.18420000,1
10843,78,Pokesudie,47.80020000,-64.76040000,1
10844,78,Pokesudie,47.80041000,-64.76064000,1
10845,78,Tracadie-Sheila,47.51950000,-64.89230000,1
10846,78,Val Doucet,47.59250000,-65.30690000,1
10847,78,Wilson Point,47.93410000,-64.49010000,1
10848,80,Des Plaines Dolomite,41.38082200,-88.12865500,1
10849,80,Hooper Branch Nature,41.03029600,-87.46473700,1
10850,80,Illini State Park ,41.42385400,-88.28456400,1
10851,80,Kankakee River State,41.29772200,-87.78772100,1
10852,80,Mazonia Braidwood Fi,41.29772200,-87.78720700,1
10853,80,Milk's Grove Nature ,40.93385300,-88.01242700,1
10854,80,Sandy Ford Land and ,41.20704600,-88.84680400,1
10855,81,Alaksen,49.09870000,-123.16560000,1
10856,81,Boundary Bay,49.06004200,-123.02465000,1
10857,81,Crescent Stables,49.12465800,-123.04725000,1
10858,81,Sea Island,49.20781900,-123.17772500,1
10859,82,Moosehorn NWR Air Qu,45.12570000,-67.26610000,2
10860,82,Moosehorn NWR Barn M,45.13580000,-67.29150000,1
10861,84,HAMMO,41.25978000,-72.54956000,1
10862,85,Rimouski,48.45280000,-68.51139000,2
10863,90,Box R WMA,29.72760000,-85.09380000,1
10864,90,Carrabelle THSF Headquarters,29.84280000,-84.69490000,1
10865,90,East Bay Fire Tower ,29.82850000,-84.88900000,1
10866,90,St. George Island AN,29.67360000,-84.84090000,1
10867,90,St. Vincent NWR,29.63430000,-85.14240000,1
10868,90,FSU Marine Lab,29.91580000,-84.51100000,1
10869,90,Apalachicola Work St,30.28950000,-85.01760000,1
10870,91,CORB,44.23820000,-65.92740000,1
10871,92,Osborne Tower,43.60210000,-80.19860000,1
10872,92,VanBerlo Tower,43.69980000,-80.04140000,1
10873,105,White Head EC,44.62960000,-66.69020000,1
10874,105,Freeport,44.28650000,-66.31840000,1
10875,105,Days Catch,44.64980000,-66.83860000,1
10876,105,Mega Nova,44.25890000,-66.34670000,1
10877,105,Georgie Porgie,44.26620000,-66.32750000,1
10878,105,Chad and Sisters Two,44.26450000,-66.34820000,1
10879,106,GMNP-Berry Hill,49.62440000,-57.92250000,2
10880,107,BEECH,44.31070000,-68.34510000,1
10881,107,PEMETIC,44.33750000,-68.24660000,1
10882,110,Seguin Island,43.70990000,-69.75960000,1
10883,112,Duluth,46.83880000,-92.00750000,1
10884,114,AFSL,52.97740000,5.12380000,1
10885,114,KOPAFSL,53.08620000,5.40370000,1
10886,114,LAUW,53.38800000,6.20400000,1
10887,120,Aransas NWR,28.31050000,-96.80600000,2
10888,120,Bill Baker Tugboat,29.46670000,-94.96560000,1
10889,120,Trinity River NWR Champion Lake,29.91840000,-94.79960000,2
10890,120,San Bernard NWR (Big,29.16230000,-95.82540000,1
10891,123,02_Dagebüll,54.72660000,8.70100000,2
10892,123,04_Nordstrand,54.49070000,8.92820000,2
10893,123,06_Tümlauer Koog,54.34860000,8.67420000,2
10894,123,08_Büsum,54.13220000,8.87870000,2
10895,123,11_Natureum Niederelbe,53.82750000,9.03260000,2
10896,123,15_Cappel-Neufeld,53.76150000,8.55040000,2
10897,123,16_Bremerhaven,53.54420000,8.57070000,2
10898,123,21_Wangerland-Schöpfwerk,53.67450000,8.02000000,2
10899,123,22_Schillig,53.69620000,8.00750000,2
10900,123,23_Carolinensiel,53.69700000,7.75850000,2
10901,123,24_Dornumersiel,53.67600000,7.47230000,1
10902,123,24_Dornumersiel,53.67580000,7.47230000,2
10903,123,25_Hagermarsch,53.66530000,7.28530000,2
10904,123,27_Emden,53.38460000,7.03740000,2
10905,124,Bigi Pan,5.95920000,-56.86290000,2
10906,124,Warappa Kreek,5.97710000,-54.91720000,2
10907,124,Weg naar Zee,5.88980000,-55.19960000,2
10908,125,Asunción Bay,-25.27760000,-57.63110000,2
10909,126,YERA,30.08960000,-92.82690000,1
10910,130,LLICALDAD,-42.49560000,-73.84700000,1
10911,130,Quempillen (Chile),-41.86530000,-73.74790000,1
10912,130,San Javier (Chile),-42.40470000,-73.62840000,1
10913,132,Exxon Fields,29.25110000,-89.97350000,2
10914,139,Animal Flower Cave,13.33440000,-59.61330000,2
10915,139,Golden Grove,13.15730000,-59.44850000,2
10916,143,Barn Island,41.33760000,-71.87550000,2
10917,143,Harkness,41.18260000,-72.06560000,2
10918,143,Sherwood,41.11210000,-73.33050000,2
10919,147,Bitter Lake,33.46350000,-104.40540000,1
10920,147,Bitter Lake 2,33.46360000,-104.40530000,1
10921,148,Wabashiki S1,39.49340000,-87.43740000,1
10922,148,Lieber S3,39.47840000,-86.88290000,1
10923,148,MorganMonroe S5,39.32310000,-86.41350000,1
10924,148,Brown S6,39.16160000,-86.22000000,1
10925,148,Clarkson S8,39.06580000,-85.59840000,1
10926,148,Versailles S9,39.06320000,-85.20310000,1
10927,148,Oxbow S10,39.11380000,-84.84660000,1
10928,148,Lincoln Ridge S11,38.96450000,-84.56130000,1
10929,148,Woodland Mound S12,39.03550000,-84.32560000,1
10930,149,TREES,17.05260000,-88.56540000,1
10931,157,SG2,36.71000000,-99.26000000,1
10932,157,SG3,36.75000000,-99.16000000,1
10933,157,SG4,38.90000000,-108.40000000,1
10934,157,SG5,36.74000000,-99.60000000,1
10935,159,FE-100-1,48.21030000,-71.23990000,1
10936,159,FE-100-3,48.20800000,-71.22590000,1
10937,159,FE-170,48.20300000,-71.21140000,1
10938,162,Amherst College 1,42.36330000,-72.51230000,1
10939,162,Amherst College 2,42.36050000,-72.50730000,1
10940,48,Lambs Gap Tower,40.30550000,-77.00570000,2
10941,48,Waggoners Gap,40.27650000,-77.27740000,2
10942,48,Greenwood Fire Tower,40.68150000,-77.73860000,1
10943,48,Wheeler Fire Tower,41.69100000,-79.25690000,2
10944,48,SGL 143,41.87870000,-79.45670000,1
10945,48,SGL 154,41.99700000,-79.70170000,2
10946,152,Northern Montezuma WMA,43.06770000,-76.71870000,2
10947,159,FERS,48.24430000,-71.25460000,2
10948,3,UdeSherbrooke,45.38050000,-71.92550000,2
10949,170,DK_Stevens,55.29030000,12.45430000,1
10950,170,DK_Møn,54.94700000,12.54000000,1
10951,170,FINO2,55.00700000,13.15400000,2
10952,170,FBO_Lighthouse,55.38400000,12.81700000,1
10953,169,Uphill,44.74140000,-79.00840000,2
10954,121,BSI Dammweg,47.77010000,16.75280000,2
10955,113,ECN,52.78310000,4.67870000,2
10956,113,Castricum,52.55760000,4.60860000,2
10957,113,WUR Camperduin 2,52.72260000,4.64140000,2
10958,173,Ventotene - Museo,40.79050000,13.41820000,1
10959,173,Ventotene - Municipio,40.79620000,13.43270000,1
10960,120,Trinity River NWR Headquarters,30.09870000,-94.76630000,2
10961,25,University of New England,43.45870000,-70.38870000,1
10962,147,Rich Lake,33.28910000,-102.19680000,1
10963,120,Lake Jackson Texas,29.05080000,-95.45350000,1
10964,152,MontezumaNWR_Office,42.97240000,-76.77050000,2
10965,152,Seneca Meadows,42.93130000,-76.84800000,1
10966,123,07_Eidersperrwerk,54.26590000,8.84590000,2
10967,123,09_Friedrichskoog,54.00040000,8.87610000,2
10968,123,26_Utlandshörn,53.56280000,7.10750000,2
10969,2,Horton High School,45.07220000,-64.40630000,2
10970,114,OLHAO,37.03230000,-7.81740000,1
10971,114,MALAGA,36.74080000,-4.47300000,1
10972,123,03_Sönke-Nissen-Koog,54.61470000,8.87440000,2
10973,120,Matagorda,28.62810000,-95.97060000,2
10974,178,Toronto Zoo,43.81910000,-79.18490000,2
10975,174,E. Pepita,-52.46930000,-69.38490000,2
10976,113,IJmuiden - WURSG011 ,52.46090000,4.58280000,2
10977,113,Schagerbrug,52.81300000,4.72810000,1
10978,113,WUR Camperduin 1,52.72280000,4.64160000,2
10979,160,Quarry,50.21590000,-63.79780000,1
10980,3,FM Morency,47.36700000,-71.01590000,1
10981,3,FM3,47.33350000,-71.11190000,1
10982,3,FM2,47.31480000,-71.14250000,1
10983,3,FM5,47.46420000,-71.02390000,1
10984,175,Columbus Zoo,40.16010000,-83.11450000,2
10985,179,RSPB HQ,52.11610000,-0.26550000,2
10986,123,13_Ruthenstrom,53.71990000,9.41960000,2
10987,3,Tadoussac - roulotte,48.15940000,-69.66310000,1
10988,14,BIBR,41.14780000,-71.59000000,1
10989,175,the Wilds,39.82980000,-81.73270000,2
10990,4,Chassahowitzka NWR- FL,28.74880000,-82.55390000,2
10991,177,Yarrie,-20.56360000,120.24800000,1
10992,123,12_Freiburg,53.82690000,9.29490000,2
10993,2,Country Island,45.10150000,-61.54360000,1
10994,76,Norderney 1 ,53.70940000,7.23000000,2
10995,212,abcgv,46.94710000,-92.89770000,2
10996,250,Allan Hills,51.73830000,-106.21740000,2
10997,78,Allison (Johnston Point II),46.14840000,-64.07740000,1
10998,250,AMSTRONG,51.58460000,-106.31990000,1
10999,1,Arkey's Acres,42.61190000,-81.73460000,2
11000,197,Aube,45.92810000,-65.22430000,1
11001,47,AVFP,39.09190000,-74.71790000,1
11002,2,Baccaro,43.45960000,-65.48150000,2
11003,78,Barachois (Cap Bimet,46.23500000,-64.43670000,1
11004,2,Beaubassin,45.85070000,-64.28210000,2
11005,74,Bennett Meadow,42.68070000,-72.47390000,1
11006,250,Bessie,51.65530000,-106.61570000,1
11007,32,BHILL,44.42940000,-68.58940000,1
11008,14,BISE,41.15320000,-71.55270000,1
11009,14,BIWF,41.12570000,-71.50750000,1
11010,2,Black Rock,45.14490000,-64.74390000,2
11011,2,Blandford,44.48340000,-64.10710000,2
11012,48,Blue Marsh Lake SGL,40.41070000,-76.07960000,2
11013,10,BP01,43.46740000,-65.74920000,1
11014,10,BP03,43.46430000,-65.74680000,1
11015,10,BP04,43.46240000,-65.74950000,1
11016,10,BP06,43.45860000,-65.74830000,1
11017,90,Bradwell Game Farm A,30.38660000,-84.67700000,1
11018,191,Breckenridge Bluff,46.98270000,-123.97440000,2
11019,156,Bruckner Island,42.57170000,-82.66600000,2
11020,156,Bruckner Island,42.57170000,-82.66600000,0
11021,43,BULL,37.14990000,-75.95720000,1
11022,48,Buntings,38.13850000,-75.18890000,2
11023,1,Campbellville,43.44290000,-80.01200000,2
11024,10,CANS2,45.31960000,-60.96820000,1
11025,2,Canso,45.31950000,-60.96820000,2
11026,10,CANSOSPR,45.31950000,-60.96820000,1
11027,3,Cap Tourmente,47.07190000,-70.78520000,2
11028,2,Cape Enrage,45.59520000,-64.78060000,1
11029,2,Cape Forchu,43.79520000,-66.15560000,2
11030,37,Carden LOSH,44.60090000,-79.04640000,2
11031,90,Carrabelle THSF Headquarters,29.84270000,-84.69500000,1
11032,117,Cayenne,4.94440000,-52.32540000,2
11033,63,Chaplin East,50.40660000,-106.55810000,1
11034,67,Churchill - Fen,58.66590000,-93.83010000,1
11035,67,Churchill - Fen,58.67880000,-93.83640000,1
11036,47,CISP,39.21690000,-74.64130000,1
11037,2,Clam Bay,44.72840000,-62.92380000,2
11038,10,CONRD,44.64850000,-63.38500000,1
11039,92,Cryderman Tower,43.50890000,-80.08990000,2
11040,197,Degenhardts,45.93420000,65.25790000,1
11041,377,Desert NWR,36.43860000,-115.36260000,2
11042,18,Eagle Nest 1,41.62301000,-83.24540000,1
11043,90,East Bay Fire Tower ,29.82830000,-84.88920000,1
11044,2,East Kemptville,44.10980000,-65.68170000,1
11045,59,East Point,39.20010000,-75.02560000,2
11046,78,Escuminac Pt,47.06620000,-64.81490000,1
11047,19,Favre-Dyke,29.66860000,-81.26540000,1
11048,280,FG_Leary_Chilliwack,49.17130000,-121.92100000,2
11049,76,FG1,54.18500000,7.88170000,1
11050,1,Fingal,42.67310000,-81.32540000,1
11051,43,FINWR,37.09810000,-75.97870000,1
11052,3,FM Camp Mercier,47.22260000,-71.22170000,1
11053,91,Ford,44.32500000,-66.11490000,1
11054,74,Fort River,42.34120000,-72.56600000,1
11055,47,Fortescue,39.22240000,-75.16610000,1
11056,14,FRIS,40.63280000,-73.21570000,2
11057,2,Fundy NP,45.59220000,-64.99440000,2
11058,2,Fundy Parkway,45.43250000,-65.40400000,2
11059,25,FURBISH (RHC-2),43.28190000,-70.58170000,1
11060,6,Galeta,9.40300000,-79.86070000,2
11061,2,Gardner Creek,45.26050000,-65.74290000,2
11062,9,GB_ferry_way,43.08990000,-70.85220000,1
11063,9,GB_thomas,43.07520000,-70.83940000,1
11064,47,GOLF,39.41990000,-74.37310000,1
11065,3,Grande-Ile ,50.19110000,-63.90940000,2
11066,14,GTPT,41.39060000,-70.04930000,2
11067,1,Guelph_Lake_CA,43.60500000,-80.27010000,2
11068,32,GWASS,44.47060000,-67.57160000,1
11069,1,Haldimand Raptor Reserve,42.88940000,-79.92370000,1
11070,250,HanleyWest,51.68800000,-106.53640000,1
11071,217,Heist,51.34100000,3.23780000,1
11072,76,HelgolandFG1,54.18500000,7.88160000,2
11073,76,HelgolandML1,54.17820000,7.88730000,2
11074,74,Hogback,42.84980000,-72.79870000,1
11075,77,Holgate1,39.51760000,-74.28290000,1
11076,78,Hopewell,45.81650000,-64.58310000,1
11077,90,Howard's Creek,29.89100000,-85.06870000,1
11078,10,Huggins,45.08950000,-64.36870000,2
11079,1,Hullet Provincial Wildlife Area,43.64890000,-81.46970000,2
11080,19,IRI_2017,18.04410000,-77.93930000,1
11081,2,Irving Nature Park,45.22560000,-66.11250000,1
11082,2,Joggins,45.69510000,-64.45020000,2
11083,78,Johnstons Point,46.18330000,-64.11910000,1
11084,2,Jordan Bay,43.69140000,-65.23530000,2
11085,92,Kitching Farm Tower,43.51970000,-80.09230000,1
11086,223,Klinta - Gettlinge,56.38910000,16.43650000,1
11087,57,La Victoria 1,11.12340000,-74.08960000,1
11088,57,La Victoria 2,11.12330000,-74.09330000,1
11089,195,LacEdouard-Champs,47.65100000,-72.29070000,1
11090,48,Lakeview landfill,42.06280000,-80.01680000,2
11091,2,Lawrencetown,44.63790000,-63.31910000,1
11092,213,Lazy Heart- Grizzly Broadband,47.01110000,-114.17930000,2
11093,213,Lazy Heart- Grizzly Broadband,47.01110000,-114.17930000,0
11094,213,Lee Metcalf National Wildlife Refuge-MT,46.55650000,-114.07490000,2
11095,19,LI_2017,18.03490000,-77.93540000,1
11096,2,Lockhartville,45.08410000,-64.21540000,2
11097,11,LONGISL,43.68810000,-70.15320000,1
11098,32,LOOKSPT,44.62300000,-67.55240000,1
11099,4,Mackay Island NWR- NC,36.52700000,-75.98940000,2
11100,64,Magee Marsh 2016,41.61150000,-83.17500000,1
11101,78,Mal Bay South ,47.94740000,-64.48610000,1
11102,48,Marshlands 1,40.12760000,-75.76900000,2
11103,48,Marshlands 2,40.12710000,-75.76920000,1
11104,10,MART,44.68780000,-63.14570000,1
11105,193,Mary Gray Bird Sanctuary Indiana,39.59020000,-85.22580000,2
11106,168,McGill_Bird_Observatory,45.43070000,-73.93850000,1
11107,210,MDC HURLEY,36.94190000,-93.46400000,2
11108,210,MDC JENKINS,36.82490000,-93.72570000,2
11109,210,MDC JOPLIN,36.94980000,-94.51560000,2
11110,210,MDC TEN MILE POND,36.73960000,-89.31220000,2
11111,2,Middle Ohio,43.92470000,-65.40420000,1
11112,16,MIDFORK2,40.38573100,-87.97970000,1
11113,47,Mispillion,38.94790000,-75.31520000,2
11114,14,MNTK,41.05910000,-71.86910000,2
11115,14,MNYN,41.60880000,-69.98680000,2
11116,64,Mound West,41.63080000,-83.25550000,1
11117,48,Mt. Davis,39.80650000,-79.17310000,2
11118,147,Muleshoe NWR,33.96620000,-102.74540000,1
11119,14,MUSK,41.33730000,-70.30480000,1
11120,54,N3 Chapman,41.27450000,-85.80200000,1
11121,14,NAPA,41.30630000,-71.88380000,2
11122,14,NAPA,41.30630000,-71.88380000,0
11123,57,Necocli,8.42730000,-76.78860000,1
11124,38,Netitishi,51.29120000,-80.11670000,1
11125,14,NOMA,41.26130000,-70.81520000,2
11126,38,North Bluff,51.48400000,-80.45000000,1
11127,64,OttawaWeir,41.63940000,-83.21700000,1
11128,35,PARC Binkey,40.25090000,-79.32970000,2
11129,35,PARC Brownfield,39.81140000,-79.69100000,1
11130,78,PEINP,46.42760000,-63.18430000,1
11131,250,Peters,51.65720000,-106.64980000,1
11132,64,Pipe Creek North,41.45530000,-82.66460000,2
11133,64,Pipe Creek South,41.45531000,-82.66460000,2
11134,48,Plumer Fire Tower,41.48350000,-79.63680000,2
11135,32,PMP,44.41160000,-67.90460000,2
11136,2,Port Maitland,43.98590000,-66.15260000,2
11137,1,Priceville,44.20820000,-80.61220000,2
11138,48,Pymatuning - Ford Island,41.63670000,-80.42280000,2
11139,92,Quarry Tower,43.83890000,-80.26170000,1
11140,63,Reed West,50.39780000,-107.15050000,1
11141,151,Rg27 Tower,40.40860000,-76.71160000,2
11142,3,Riviere-Ouelle,47.42660000,-70.06110000,2
11143,1,Ruthven,42.97760000,-79.87610000,2
11144,10,Sable West Light 2,43.93200000,-60.02290000,1
11145,78,Salutation Cove,46.33810000,-63.78500000,1
11146,10,SBL_EL,43.96010000,-59.79070000,2
11147,107,SCHOODIC,44.35050000,-68.05300000,1
11148,7,Seal,43.88930000,-68.73330000,1
11149,10,Seal South,43.39470000,-66.01450000,1
11150,10,SealNorth,43.41150000,-66.00910000,2
11151,10,SealWest,43.40810000,-66.02100000,1
11152,250,SEIB,51.63390000,-105.87930000,1
11153,12,SERC,44.33560000,-68.06210000,1
11154,48,SGL 74,41.21820000,-79.31770000,2
11155,91,SMAR,44.34020000,-66.11880000,1
11156,3,St-Denis-sur-Mer,47.51540000,-69.95020000,2
11157,84,Stratford Point,41.15340000,-73.10370000,2
11158,48,Stutchbury,41.78580000,-80.01700000,2
11159,74,Sugarloaf,42.46970000,-72.59190000,1
11160,92,Sunset Farm,43.71660000,-80.33800000,1
11161,76,Sylt 1 ,54.79030000,8.28330000,2
11162,147,Tahoka Lake,33.25710000,-101.74310000,1
11163,90,Tate's Hell SF Deep ,29.85920000,-84.91230000,1
11164,213,Teller Refuge-MT,46.32360000,-114.13190000,2
11165,90,Telogia Creek,30.35490000,-84.94800000,1
11166,48,Templeton,40.90770000,-79.44360000,2
11167,78,Tintamarre,45.94070000,-64.25750000,1
11168,1,Torrance A,44.96730000,-79.51250000,1
11170,460,tve-home,34.00000000,-119.00000000,0
11171,76,Wangerooge 1 ,53.78990000,7.91990000,2
11172,74,Wantastiquet,42.85510000,-72.53810000,1
11173,248,Waskaganish,51.48810000,-78.74940000,2
11174,1,Waterford_Quarry,42.91550000,-80.31080000,1
11175,19,Watermelon Pond WMA,29.56340000,-82.61110000,2
11176,248,Wemindji,52.99800000,-78.83840000,2
11177,2,West Quoddy,44.91330000,-62.34740000,2
11178,10,West Quoddy,44.91420000,-62.34770000,1
11179,250,Westman East,51.61620000,-106.16350000,1
11180,250,Westman West,51.61290000,-106.18990000,1
11181,48,Westtown School,39.94820000,-75.53830000,2
11182,90,Wilma Work Station A,30.16340000,-84.96960000,1
11183,78,Wilson Point,47.93410000,-64.49020000,1
11184,64,Winous Point,41.46190000,-82.99900000,1
11185,250,Zdunich,51.54890000,-106.28610000,1
11186,41,NULL,NULL,NULL,0
11187,123,01_Emmelsbüll,54.80640000,8.65700000,2
11188,123,05_Norderheverkoog,54.40790000,8.81180000,2
11189,123,10_Kaiser-Wilhelm-Koog,53.91630000,8.94770000,2
11190,123,14_Cuxhaven,53.87550000,8.69670000,2
11191,123,17_Fedderwardersiel,53.59640000,8.35490000,2
11192,123,18_Sehestedt,53.43600000,8.29600000,2
11193,123,19_Petershörn,53.43710000,8.09230000,2
11194,123,20_Wilhelmshaven,53.54800000,8.08840000,2
11195,123,31_Nordenham,53.50050000,8.47470000,2
11196,123,46_TU_Harburg,53.46330000,9.97070000,2
11197,151,A34 Repeater,40.44430000,-76.59650000,2
11198,273,Alaksen,49.09870000,-123.16560000,2
11199,183,Albany Pine Bush Preserve Discovery Center,42.71860000,-73.86470000,2
11200,327,Aldverville Black Oak Savanna,44.17490000,-78.08650000,2
11201,201,Altona,49.12700000,-97.57030000,2
11202,273,Anderson Elementary School,49.16450000,-123.11880000,2
11203,3,Anse au Persil,47.87560000,-69.55030000,2
11204,17,Appledore,42.98722200,-70.61527800,1
11205,1,Arthur Langford Reserve,42.69450000,-80.64780000,1
11206,48,Assateague State Park,38.24100000,-75.13600000,2
11207,1,Auzins,42.92540000,-81.36730000,2
11208,13,AVPRT,45.10871200,-64.22696000,1
11209,1,Aylmer,42.80050000,-80.94600000,2
11210,357,Bahia Ohuira (Paredones),25.66520000,-108.98940000,1
11211,14,BBVA,36.67180000,-75.91560000,2
11212,48,Bear's Head Fire Tower,40.85050000,-76.07940000,2
11213,107,BEECH,44.31020000,-68.34620000,2
11214,12,BHILL,44.42934000,-68.58928000,1
11215,78,Big Island,45.64950000,-62.45650000,1
11216,48,Big Pocono Fire Tower,41.04240000,-75.35260000,2
11217,1,Binbrook Conservation Area,43.09970000,-79.83090000,2
11218,48,Black Log Tower,40.43260000,-77.64800000,2
11219,4,Blackbeard Island NWR - GA,31.48950000,-81.20900000,2
11220,14,BlackrockNew,41.14800000,-71.59010000,1
11221,48,Blackwater NWR,38.44600000,-76.09190000,2
11222,45,BLOCKI-1,41.21360000,-71.55900000,1
11223,45,BLOCKI-1,41.21360000,-71.55890000,1
11224,1,Bluewater,44.74070000,-81.23450000,2
11225,155,boca_fl,26.37520000,-80.08210000,2
11226,65,Bolivar_Flats,29.37140000,-94.74950000,2
11227,223,Bonden,63.43390000,20.03830000,2
11228,76,Borkum 1 ,53.58880000,6.66250000,2
11229,78,Bouctouche,46.46150000,-64.65910000,1
11230,90,Box R WMA,29.72750000,-85.09350000,1
11231,10,BP02,43.46474000,-65.75120000,1
11232,10,BP05,43.46091000,-65.74502000,1
11233,10,BP07,43.45815000,-65.74407000,1
11234,10,BPLH,43.45640000,-65.74360000,1
11235,10,BPNorth,43.48010000,-65.75730000,1
11236,10,BPSouth,43.45790000,-65.74380000,2
11237,10,BPY1,43.46521000,-65.74870000,1
11238,48,Bradford,41.85690000,-78.80960000,2
11239,1,Brantford_Airport,43.13450000,-80.34390000,1
11240,1,Breakwater,42.56110000,-80.28440000,2
11241,169,Brechin,44.54260000,-79.18760000,2
11242,26,Bridge St Sackville ,45.90340000,-64.34820000,1
11243,2,Brier Island,44.27540000,-66.34930000,2
11244,1,Bright,43.26320000,-80.65490000,2
11245,250,Bright Water North,51.62320000,-106.55620000,1
11246,1,Bronte Creek Provincial Park,43.40470000,-79.76040000,2
11247,78,Brule Point,45.75510000,-63.21080000,1
11248,48,Bucktoe Preserve,39.82090000,-75.72210000,2
11249,174,Buque Quemado,-52.41910000,-69.58420000,2
11250,1,Cabot_Head,45.24610000,-81.29860000,2
11251,113,Caister-on-Sea Lifeboat,52.64610000,1.73600000,2
11252,274,Calumet,47.24450000,-88.49300000,2
11253,213,Camas National Wildlife Refuge - ID,43.96520000,-112.26450000,2
11254,1,Cambridge_RARE,43.37680000,-80.35250000,2
11255,1,Camp Onondaga - THFC,43.27850000,-80.29130000,2
11256,6,Canopy Tower,9.07770000,-79.64930000,2
11257,10,CANS1,45.32020200,-60.96793500,1
11258,2,Cap Pele,46.23070000,-64.29650000,1
11259,3,Cap-aux-Meules,47.38760000,-61.86020000,2
11260,4,Cape Romain NWR - SC (Bulls Island),32.90710000,-79.61340000,2
11261,4,Cape Romain NWR - SC (HQ),32.97260000,-79.67110000,2
11262,78,Cavendish,46.50110000,-63.41550000,1
11263,4,Cedar Island NWR- NC,34.95660000,-76.27860000,2
11264,64,Cedar Point,41.69890000,-83.33830000,1
11265,243,Center for Conservation,27.77880000,-82.40410000,2
11266,63,Chaplin West,50.41130000,-106.75500000,1
11267,145,Chase Bridge,44.58430000,-84.55500000,1
11268,14,CHDE,38.77030000,-75.08520000,1
11269,1,Chesley,44.28520000,-81.10000000,2
11270,290,Chestnut Mountain,35.88110000,-85.29310000,2
11271,14,CHIN,37.86230000,-75.36910000,2
11272,48,Chincoteague NWR,37.97750000,-75.28240000,2
11273,2,Church Point - Ford,44.32500000,-66.11490000,2
11274,67,Churchill - Bird Cove,58.75530000,-93.90220000,1
11275,67,Churchill - Gordon Point,58.77830000,-93.73580000,1
11276,67,Churchill - Nester 1,58.66140000,-93.19120000,1
11277,145,Clare,44.15090000,-84.94840000,1
11278,1,Clear Creek,42.58190000,-80.57630000,2
11279,145,Clear Lake,45.15650000,-84.18720000,1
11280,10,CLHRB,44.72801000,-62.92378000,1
11281,354,Clinton Lake State Fish & Wildlife Area,40.22460000,-88.68860000,2
11282,1,Cobourg,43.95840000,-78.12900000,1
11283,182,Colony Szabolcs,48.17330000,21.47140000,1
11284,148,Columbus S7,39.20200000,-85.93940000,1
11285,2,Comeau (Marshalltown),44.58080000,-65.79280000,2
11286,151,Connex Village,40.46700000,-76.60330000,2
11287,4,Crocodile Lake NWR- FL,25.19190000,-80.35650000,2
11288,1,Crysler Park Marina,44.93670000,-75.08670000,2
11289,14,CTPT,41.30730000,-70.06370000,1
11290,368,Cypress Grove Research Center Marshall CA,38.16960000,-122.90160000,2
11291,151,D2 Pine Tree,40.42630000,-76.72240000,2
11292,329,Dak Zwin Natuur Park,51.35830000,3.34890000,2
11293,64,Darby,41.53070000,-82.98500000,1
11294,48,DB Farm Emory,39.91880000,-75.82090000,1
11295,113,Den Helder vuurtoren,52.95550000,4.72640000,2
11296,64,Detroit River,42.11670000,-83.18910000,1
11297,63,Diefenbaker (Dief),51.25500000,-106.82780000,1
11298,4,Ding Darling NWR- FL,26.44810000,-82.11820000,2
11299,273,Discovery Island,48.42550000,-123.22710000,2
11300,316,Duke Farms,40.52850000,-74.66700000,2
11301,1,Dunkirk Lighthouse,42.49300000,-79.35530000,1
11302,1,Dunkirk Lighthouse,42.49300000,-79.35530000,0
11303,19,Dunn's Creek,29.52660000,-81.59220000,2
11304,48,DWL Great Cypress Swamp,38.47860000,-75.31890000,2
11305,189,Dygert,41.22460000,-85.50550000,2
11306,174,E. El Pantano,-52.68580000,-69.06080000,2
11307,174,E. MiraMar,-52.54730000,-69.31910000,1
11308,2,Eagle Head/West Berlin,44.06570000,-64.60750000,2
11309,167,EAREC,37.58870000,-75.82210000,1
11310,1,Earl_Rowe_PP,44.14840000,-79.90290000,1
11311,38,East Point,51.38180000,-79.68570000,1
11312,2,East Walton,45.24990000,-63.95710000,2
11313,90,Eastpoint ANERR Dock,29.76940000,-84.88150000,1
11314,258,El Jaguar,13.23800000,-86.05300000,2
11315,354,Emiquon-TNC Headquarters,40.35830000,-90.09890000,1
11316,123,Emssperrwerk,53.32260000,7.31340000,2
11317,357,Ensenada - Cibolas del Mar,31.90780000,-116.72670000,1
11318,64,Erie Marsh 2016,41.76350000,-83.47030000,1
11319,2,Escuminac,47.07940000,-64.87360000,2
11320,1,Exeter Sewage Lagoons,43.35610000,-81.49850000,1
11321,1,Falconer_Farm,42.81420000,-80.58500000,1
11322,14,FALK,41.21310000,-72.65350000,1
11323,279,Falsterbo Fyr,55.38370000,12.81640000,2
11324,48,Fassler,43.36800000,-75.90940000,2
11325,279,Fbo vattentorn,55.40360000,12.84510000,2
11326,166,FDSHQ,27.62280000,-82.71390000,2
11327,96,FGCU Grounds,26.45850000,-81.77550000,2
11328,182,Field Station in Szabolcs,48.17620000,21.50080000,1
11329,48,Fields Pond Audubon Center,44.73830000,-68.72760000,2
11330,387,Finca Cántaros,8.81070000,-82.96080000,2
11331,82,Fire Tower,44.85274900,-67.15986100,2
11332,167,Fisherman's Island,37.09800000,-75.97860000,2
11333,1,Flamborough_Quarry,43.31360000,-80.01370000,2
11334,145,Fletcher,44.54130000,-84.86440000,1
11335,4,Florida Keys NWR Nature Center,24.67060000,-81.35450000,2
11336,4,Florida Panther NWR- FL,26.18720000,-81.35000000,2
11337,3,FM Crete 3,47.33730000,-71.11440000,1
11338,26,Fork Field Farms,45.94101000,-64.33366000,1
11339,1,Forks_of_the_Credit,43.82590000,-80.00500000,2
11340,1,Formosa,44.05350000,-81.17740000,1
11341,47,FORT,39.22250000,-75.16610000,2
11342,165,Fort Custer Training Center,42.33260000,-85.29950000,2
11343,253,Fort Moultrie,32.76030000,-79.85770000,2
11344,195,Fort-Lennox,45.12510000,-73.26260000,1
11345,150,GA_DNR_DOCK,31.12290000,-81.47760000,2
11346,150,GA_OSS_DOCK,31.84060000,-81.08830000,2
11347,150,GA_SSI_DOCK,31.29560000,-81.34350000,1
11348,223,Gammalsby 205,56.32120000,16.51510000,2
11349,230,Garden,34.00800000,-81.08010000,2
11350,12,GDI,44.15000000,-68.25000000,1
11351,1,Geneva,41.85820000,-80.97010000,1
11352,1,Gerdau,43.84870000,-78.90810000,2
11353,14,GGIS,41.20180000,-72.11920000,1
11354,14,GGIS,41.20180000,-72.11920000,0
11355,1,Girard,41.98560000,-80.33790000,2
11356,1,Glass,44.36930000,-81.48000000,2
11357,74,Glover's Ledge,43.14600000,-72.39050000,2
11358,19,Gold Head Branch SP,29.82050000,-81.95290000,1
11359,3,Grandes-Bergeronnes,48.25810000,-69.52140000,2
11360,48,Granite Lake Headwaters,43.02440000,-72.10300000,2
11361,142,Great Hollow Nature Preserve,41.50120000,-73.53090000,2
11362,48,Green Valley,40.15440000,-75.68570000,2
11363,3,Grève de Tadoussac,48.14060000,-69.71900000,2
11364,145,GTM NERR,30.02410000,-81.32540000,2
11365,14,GTPT,41.39060000,-70.04920000,1
11366,231,Guelph Lake Nature Centre,43.59840000,-80.26680000,1
11367,143,Guilford,41.27120000,-72.66510000,2
11368,1,Hagersville_Landfill,42.98630000,-80.12810000,2
11369,63,Halvorgate,50.60200000,-106.68420000,1
11370,84,Hammonasset State Pa,41.25990000,-72.54960000,2
11371,2,Hampton,44.90580000,-65.35090000,2
11372,227,Hanbao Yuan - Changhua,24.00790000,120.35930000,1
11373,250,Hanson,51.57270000,-106.49270000,1
11374,1,Harrington,43.24080000,-80.97810000,2
11375,4,Harris Neck NWR - GA,31.62200000,-81.26200000,2
11376,7,HART,43.90550000,-69.26620000,1
11377,3,Havre Aubert,47.24350000,-61.95340000,2
11378,277,Headquarters,43.94380000,-71.70110000,1
11379,113,Heemtuin Hillegom,52.28230000,4.58710000,1
11380,76,HelgolandRT2,54.18740000,7.87380000,2
11381,48,High Knob Fire Tower,41.29970000,-75.12470000,2
11382,65,High_Island,29.56220000,-94.39040000,2
11383,1,Hilliardton,47.74080000,-79.69890000,2
11384,92,Hindmarsh Tower,43.76170000,-80.15290000,1
11385,4,Hobe Sound NWR- FL,27.03730000,-80.11200000,2
11386,113,Hoek van Holland Zeetoren,51.99170000,4.12290000,1
11387,32,HOFT,41.44663000,-70.64817000,1
11388,223,Holmögadd,63.59400000,20.75230000,2
11389,72,HR Summer Deployment,47.19094200,-66.54856600,1
11390,72,HR Summer Deployment,47.20039000,-66.55191500,1
11391,1,Hubbert,44.27880000,-80.64810000,1
11392,26,HWY,45.90076400,-64.35455500,1
11393,2,Inkerman,47.67050000,-64.76250000,1
11394,3,Isle Verte,48.01770000,-69.35570000,1
11395,48,Jay Drasher,40.32010000,-75.90260000,1
11396,14,JBNY,40.61630000,-73.82400000,2
11397,290,Jennings Knob,36.14830000,-86.21480000,2
11398,78,Johnson's Mills,45.83380000,-64.51160000,2
11399,7,JORDL,44.44269300,-67.82409300,1
11400,145,Josie's Farm,24.51870000,-75.58250000,1
11401,76,Juist 1 ,53.67750000,6.97710000,2
11402,113,Julianadorp,52.88090000,4.71480000,2
11403,152,Kaiser-Manitou Beach,43.32360000,-77.71750000,2
11404,3,Kamouraska,47.56750000,-69.85670000,2
11405,186,Kasbah Yasmina,31.21380000,-3.98840000,1
11406,35,Kelley's Island,41.61420000,-82.70620000,2
11407,354,Kennekuk Cove County Park,40.20290000,-87.72770000,2
11408,113,Kennemerwind,52.73960000,4.68740000,2
11409,2,Kent Island,44.58141000,-66.75530000,2
11410,266,Kibby Mountain,45.41870000,-70.54440000,1
11411,1,Kilgas,42.17550000,-79.83940000,2
11412,1,Killbear,45.34500000,-80.18830000,2
11413,277,Kineo ,43.91960000,-71.75680000,1
11414,2,Kingsburg,44.26740000,-64.25950000,2
11415,1,Kingsville,41.83760000,-80.71200000,1
11416,48,Knobs Fire Tower,41.14870000,-78.33510000,2
11417,279,Knösen,55.42910000,12.85280000,2
11418,1,Komoka Provincial Park,42.95380000,-81.38450000,1
11419,2,Kouchibouguac,46.77520000,-64.95550000,1
11420,57,La Fragua,4.32240000,-74.54170000,1
11421,195,Lac-Edouard-2,47.53250000,-72.37610000,1
11422,48,Lamb's Knoll,39.44830000,-77.62580000,2
11423,76,Langeoog 1 ,53.75250000,7.48120000,2
11424,167,Langley AFB,37.09870000,-76.35510000,2
11425,1,Langton,42.72590000,-80.56230000,2
11426,1,Lemoine Point C.A.,44.21760000,-76.60690000,1
11427,145,Lighthouse Point,29.07850000,-80.91960000,2
11428,302,Lion Country Safari,26.72300000,-80.32600000,2
11429,1,Lions_Head,44.96400000,-81.25840000,1
11430,4,Little Bear,32.61530000,-79.99660000,1
11431,19,LIX_2017,18.03890000,-77.93600000,1
11432,310,London Grove,39.81610000,-75.80850000,2
11433,247,Long Canyon,35.62880000,-118.33430000,2
11434,1,Long Point Eco-Adventures,42.68980000,-80.34950000,1
11435,310,Longwood Gardens,39.87040000,-75.68750000,2
11436,2,Lookoff,45.20700000,-64.39780000,2
11437,78,Lord and Foy ,47.48930000,-65.24160000,1
11438,2,Louisbourg,45.88570000,-59.98250000,1
11439,19,Lower Suwannee Refug,29.37250000,-83.04430000,2
11440,4,Loxahatchee NWR- FL,26.49880000,-80.21600000,2
11441,1,Lukosius,42.70120000,-80.64400000,1
11442,48,Lupine Field,38.34450000,-75.42720000,2
11443,1,Luther_Marsh,43.94740000,-80.46400000,2
11444,48,LUZE04,41.15860000,-76.16920000,2
11445,1,MacGregor Point Provincial Park,44.41720000,-81.44840000,1
11446,145,Mack Lake,44.56500000,-84.02400000,1
11447,1,Magnetawan,45.63120000,-79.63050000,2
11448,3,Magpie,50.30780000,-64.50040000,1
11449,1,Malden Park,42.27660000,-83.06700000,1
11450,1,Malone University,40.82740000,-81.37920000,2
11451,117,Mana Rice Fields,5.61150000,-53.67020000,2
11452,63,Manitou,52.79540000,-109.64220000,1
11453,10,Mapleton,45.82060000,-65.05850000,2
11454,48,Marienville Fire Tower,41.50170000,-79.07980000,2
11455,1,Marthaville_CA,42.91560000,-82.17290000,2
11456,78,Marys Point,45.72820000,-64.66980000,1
11457,14,MASH,41.05170000,-72.27360000,2
11458,367,Massengale Mtn. - TN,36.28710000,-84.29580000,2
11459,4,Mattamuskeet NWR- NC,35.45100000,-76.20760000,2
11460,2,Matthew's Lake,43.69930000,-65.02840000,2
11461,48,Mauch Chunk Fire Tower,40.87370000,-75.69950000,2
11462,138,McGill Bird Observatory,45.43070000,-73.93850000,1
11463,145,McQueens,24.18130000,-75.47130000,1
11464,210,MDC SPRINGFIELD SW REG,37.24300000,-93.22840000,2
11465,12,MDR,43.96890000,-68.12830000,1
11466,1,Meaford,44.52740000,-80.57030000,2
11467,1,Merlin,42.21360000,-82.17270000,2
11468,7,METINIC,43.89381500,-69.12553500,2
11469,48,Middle Creek SGL,40.27110000,-76.25020000,2
11470,19,MII_2017,18.04050000,-77.94100000,1
11471,2,Miscou - Mal Bay North,47.99630000,-64.48610000,1
11472,47,MISP,38.94790000,-75.31540000,1
11473,1,Mitchell,43.45380000,-81.19850000,2
11474,19,MM_2017,18.04220000,-77.94310000,1
11475,14,MNTK,41.05910000,-71.86920000,1
11476,14,MNYN,41.60880000,-69.98690000,1
11477,14,MNYS,41.55260000,-70.01000000,2
11478,195,Mobile-2,47.56840000,-72.46900000,1
11479,1,Mosaic Port Maitland,42.85840000,-79.55920000,2
11480,2,Motus Mobile Test,45.89080000,-64.37060000,2
11481,147,Mound Lake,33.23530000,-102.07460000,1
11482,74,Mount Ascutney,43.43400000,-72.44040000,1
11483,1,Mount Forest,43.95970000,-80.78470000,2
11484,2,Mount Thom,45.55480000,-62.98590000,2
11485,301,Myers Point,42.53810000,-76.54880000,2
11486,1,Nanticoke,42.80840000,-80.04390000,2
11487,7,NASH,44.46480000,-67.74650000,1
11488,48,Nassawango Fire Tower,38.22300000,-75.46360000,2
11489,113,Natuurcentrum Ameland,53.44970000,5.77490000,2
11490,72,NBBITH1,47.20470000,-66.55450000,1
11491,48,Ned Smith Center,40.52740000,-76.94090000,2
11492,376,Nemours Wildlife Foundation_ACE Basin_SC,32.63990000,-80.68040000,2
11493,38,Netitishi,51.29130000,-80.11670000,1
11494,2,New Harbour,45.16750000,-61.45480000,2
11495,172,Newtowne Neck State Park - Compton - MD,38.25070000,-76.70200000,2
11496,10,NHRB,45.16746000,-61.45481000,1
11497,145,No Pablo,44.53490000,-84.26830000,1
11498,48,Nockamixon,40.44550000,-75.25080000,2
11499,14,NOMS,41.25310000,-70.81340000,2
11500,113,Noorderhaven Julianadorp,52.88210000,4.75610000,2
11501,47,Norbury,39.05330000,-74.92530000,1
11502,38,North Bluff,51.48390000,-80.45010000,1
11503,145,North Tawas,44.49650000,-83.54690000,1
11504,2,Northview (Upper Clements),44.72190000,-65.54250000,2
11505,4,Noxubee NWR - MS,33.27100000,-88.78390000,2
11506,47,Nummy Island,39.03850000,-74.78450000,1
11507,145,Ogemaw,44.48010000,-84.29070000,1
11508,145,Ogemaw 2,44.46420000,-84.32690000,1
11509,354,Orr Center Extension Office,39.80590000,-90.82380000,2
11510,14,OSCT,41.28750000,-72.32410000,2
11511,280,Othello,49.38060000,-121.37240000,2
11512,1,Otter Lake,45.26290000,-79.97940000,2
11513,1,Paisley,44.33370000,-81.25850000,1
11514,120,Palacios,28.71170000,-96.20680000,2
11515,6,Panama Sewage Plant,9.01650000,-79.44660000,2
11516,35,PARC Armour,40.17900000,-79.27330000,2
11517,35,PARC Banding,40.16360000,-79.26750000,2
11518,35,PARC Honey Hut,41.49070000,-81.93370000,2
11519,35,PARC Mount Wheeler,40.13120000,-80.24160000,1
11520,35,PARC SGL276,40.45640000,-79.14340000,1
11521,31,Pass-A-Loutre Wildlife Management Area,29.11890000,-89.20690000,2
11522,172,Patuxent Research Refuge,39.02740000,-76.79740000,2
11523,19,Payne's Prairie,29.56480000,-82.26500000,2
11524,90,PC1 - Primitive Campsite,29.65550000,-84.88320000,1
11525,4,Pea Island NWR- NC,35.71670000,-75.49380000,2
11526,1,Peers,42.60560000,-82.36000000,2
11527,1,Pelee_Island,41.79650000,-82.63980000,2
11528,4,Pelican Island NWR- FL,27.80350000,-80.42240000,2
11529,48,Penn - DRL,39.95220000,-75.18870000,2
11530,197,Perry Settlement,45.92660000,-65.45210000,1
11531,113,Petten,52.77320000,4.65880000,2
11532,1,Pickering OPG,43.81390000,-79.05530000,2
11533,1,Pine River Cheese,44.09470000,-81.68300000,1
11534,1,Pinery_Provincial_Park,43.24970000,-81.82490000,1
11535,165,Pitsfield Banding Station,42.16850000,-85.51800000,2
11536,9,PKR_nelson,42.74660000,-70.82470000,1
11537,9,PKR_salt_pannes,42.78040000,-70.80840000,2
11538,9,PKR_stage,42.71080000,-70.77990000,1
11539,14,PLIS,41.18940000,-72.16300000,1
11540,12,PMP,44.41310000,-67.90574000,1
11541,1,Point Farms Provincial Park,43.80410000,-81.71030000,2
11542,2,Point Lepreau,45.05850000,-66.45830000,2
11543,1,Point Pelee,41.93150000,-82.51300000,2
11544,3,Pointe à la Loupe,48.07660000,-69.27500000,2
11545,64,Pointe Mouillee,42.00960000,-83.18620000,1
11546,3,Pointe Noire,48.12320000,-69.71680000,2
11547,68,Polar Bear Pass National Wildlife Area,75.73010000,-98.42460000,1
11548,110,Popham Beach ,43.73600000,-69.79970000,1
11549,2,Port George,45.00510000,-65.11850000,2
11550,2,Port Mouton,43.94590000,-64.83940000,2
11551,120,Port O'Connor,28.45050000,-96.40460000,2
11552,310,Port Penn,39.52220000,-75.57320000,1
11553,3,Port-aux-Saumons,47.75900000,-69.94570000,1
11554,1,PresqueIsle,42.10980000,-80.15410000,2
11555,1,Prince Edward Point Bird Observatory,43.93980000,-76.86170000,2
11556,48,Princeton,41.00490000,-80.20210000,2
11557,10,PROS,44.47440000,-63.79370000,1
11558,10,PTBI,45.10744000,-61.72179000,1
11559,3,Pte-Moreault,47.95710000,-69.47650000,1
11560,2,Pubnico,43.65430000,-65.76280000,2
11561,78,Pugwash,45.86170000,-63.71290000,1
11562,174,Punta Catalina,-52.55060000,-68.77330000,2
11563,63,Quill,51.78050000,-104.31920000,2
11564,1,Rathwell,43.66100000,-81.15580000,1
11565,26,RCI Sackville Engine,45.89390000,-64.32910000,1
11566,14,RCPT,42.06580000,-70.24360000,1
11567,145,Red Oak,44.73940000,-84.27730000,1
11568,247,Red Tail Hill,35.68370000,-118.30530000,2
11569,48,Redden SF,38.74210000,-75.41460000,2
11570,47,REEDS,39.12670000,-74.89130000,2
11571,26,Richard's Farm,45.92180000,-64.23730000,1
11572,120,Rockport Bay Educati,28.02640000,-97.04660000,2
11573,1,Rondeau Provincial Park,42.28240000,-81.84110000,2
11574,307,RSPB Minsmere,52.24670000,1.61550000,1
11575,76,RT2fall,54.18717800,7.87452500,1
11576,14,RTNJ,39.50910000,-74.32410000,1
11577,48,Rushton Farm,39.98420000,-75.48920000,1
11578,1,Russell Reid PS,43.17190000,-80.28840000,2
11579,24,S04,52.14550000,-105.97840000,1
11580,54,S1 Wabashiki,39.49304400,-87.43766300,1
11581,10,Sable East Spit,44.01889000,-59.69473000,1
11582,14,SACH,41.47870000,-71.24380000,2
11583,26,Sackville Eng,45.89070000,-64.35370000,1
11584,147,Salt Plains,36.71060000,-98.27100000,1
11585,369,Salt Plains,36.71060000,-98.27100000,2
11586,120,San Bernard National,28.91310000,-95.57840000,2
11587,1,Sandbanks Provincial Park,43.89470000,-77.27470000,2
11588,291,Sandwich Bay Bird Observatory,51.26780000,1.37430000,2
11589,4,Santee NWR - SC,33.53380000,-80.43130000,2
11590,120,Sargent - TX,28.78950000,-95.62900000,2
11591,1,Saugeen Conservation Authority Formosa,44.05550000,-81.20690000,1
11592,120,Scenic Galveston,29.33470000,-94.91610000,2
11593,47,Seaview Harbor Marina,39.31340000,-74.54010000,1
11594,8,SECO,44.54310000,-67.75280000,1
11595,2,Selma2,45.33380000,-63.54070000,2
11596,157,SG1,39.40000000,-108.90000000,2
11597,267,SGDC QC,45.02900000,-73.18030000,1
11598,48,SGL 037,41.84760000,-77.15670000,2
11599,48,SGL 228,40.07740000,-78.74930000,2
11600,48,SGL 267 - Wopsy Rd,40.57580000,-78.44860000,2
11601,2,Shag Harbour,43.49320000,-65.71710000,2
11602,12,SHIP,44.23452000,-68.43921000,1
11603,14,SHNJ,40.42960000,-73.98480000,2
11604,1,Short Hills Provincial Park,43.10210000,-79.26720000,1
11605,216,SKBO,57.74240000,10.61280000,1
11606,2,Skyline,46.74840000,-60.89080000,1
11607,2,Sonora,45.05460000,-61.89570000,2
11608,3,Sorel,45.97580000,-73.17170000,1
11609,145,South Tawas,44.33330000,-83.60300000,1
11610,252,South Valley,44.87160000,-71.22540000,2
11611,203,South_Shore,44.16410000,-76.64830000,2
11612,76,Spiekeroog 1,53.77520000,7.71570000,2
11613,1,Split Rock,44.99930000,-79.98350000,2
11614,3,St. Andre Est (Kamouraska),47.70400000,-69.70070000,1
11615,90,St. George Island AN,29.64130000,-84.91350000,1
11616,145,St. Helen,44.34870000,-84.34490000,1
11617,4,St. Marks NWR- FL,30.08800000,-84.16280000,2
11618,1,St.Clair NWA,42.37870000,-82.39980000,2
11619,64,Stangee,41.61100000,-83.23130000,1
11620,18,Stangee1,41.61100000,-83.23130000,1
11621,18,Stangee2,41.61090000,-83.23150000,1
11622,2,Stanton (Digby Neck),44.42970000,-66.16540000,2
11623,77,Stone Harbor Point,39.03098900,-74.77945700,1
11624,3,St-Roch-des-Aulnaies,47.31090000,-70.16770000,2
11625,74,Sugarloaf,42.46996600,-72.59192800,1
11626,48,Summit Fire Tower,40.77830000,-78.24980000,2
11627,2,Swallowtail,44.76500000,-66.73660000,2
11628,294,Swan Bay,-32.70420000,151.96620000,2
11629,1,Sydenham,44.50490000,-80.94720000,2
11630,78,Tabusintac,47.33200000,-64.96060000,1
11631,2,Tantramar School,45.91020000,-64.36920000,2
11632,2,Taylor Head,44.80570000,-62.55990000,2
11633,240,TC Steele,39.12930000,-86.34970000,2
11634,4,Ten Thousand Islands NWR- FL,25.95940000,-81.56310000,2
11635,14,TERN,41.61970000,-69.98490000,1
11636,19,Territory 36,18.04180000,-77.94220000,1
11637,156,Tiny Marsh tower 1,44.60920000,-79.92950000,1
11638,156,Tiny Marsh Tower 2,44.61260000,-79.94800000,1
11639,2,Truro,45.36730000,-63.34300000,2
11640,14,TRUS,41.37340000,-71.57620000,2
11641,1,Turkey Point,42.71020000,-80.35730000,2
11642,145,UNF,30.27160000,-81.50720000,1
11643,354,University of Illinois at Urbana-Champaign,40.07010000,-88.22240000,2
11644,220,UQO,45.42190000,-75.73860000,2
11645,1,UWO - SSC,43.00960000,-81.27550000,2
11646,223,Valsörarna,63.42180000,21.06710000,2
11647,173,Ventotene - Punta dell'Arco,40.78680000,13.41050000,1
11648,64,Vinton Furnace Clearcut,39.20670000,-82.40350000,2
11649,90,Wakulla Work Station,30.30580000,-84.42480000,1
11650,78,Wallace,45.81450000,-63.40810000,1
11651,14,WAQT,41.55180000,-70.50680000,2
11652,250,Warren,51.86810000,-106.35980000,1
11653,145,Washington Oaks,29.63870000,-81.21000000,2
11654,38,Washiskogau Creek,51.15400000,-79.81440000,1
11655,10,Waterside,45.62290000,-64.79430000,2
11656,214,WaterTower,-15.47480000,128.13090000,1
11657,18,Weir Tower 1,41.63940000,-83.21695000,1
11658,277,Weir6,43.95360000,-71.73990000,1
11659,14,WELL,41.91470000,-69.97240000,2
11660,48,Wellington WMA,38.15760000,-75.61730000,2
11661,2,West Bay,45.37180000,-64.40350000,2
11662,277,West End,43.94640000,-71.78590000,1
11663,120,West Galveston,29.17600000,-94.99650000,2
11664,1,Westfield (Correll),42.30870000,-79.64670000,2
11665,47,Wetland,39.05800000,-74.77480000,1
11667,189,Wildwood,41.07200000,-85.82810000,2
11668,1,Wildwood Conservation Area,43.25670000,-81.07890000,1
11669,64,Willow Point 2016,41.43510000,-82.88110000,1
11670,1,Wilmot Creek,43.89320000,-78.63680000,2
11671,83,Windhover,41.21370000,-71.55910000,1
11672,290,WPNC banding station,36.06160000,-86.90580000,2
11673,250,Wunsh,51.65040000,-106.52350000,1
11674,113,WUR - De Kooy,52.90860000,4.78320000,2
11675,113,WUR - Eendekooi 't Zand,52.84380000,4.77180000,1
11676,113,WUR - Noordwijk - Huis ter Duin,52.24090000,4.42750000,2
11677,113,WUR - t Zand,52.84770000,4.75930000,2
11678,113,WUR Callantsoog Inland,52.84350000,4.72090000,2
11679,113,WUR Groote Keeten Reddingsbrigade,52.86490000,4.70310000,2
11680,113,WUR Texel Krassekeet,53.09990000,4.89830000,2
11724,1,Curries,43.05850000,-80.74800000,1
11725,256,Drone,47.19810000,-93.23680000,1
11726,76,HelgolandRT1,54.18740000,7.87360000,2
11727,117,Kourou,5.16040000,-52.62760000,2
11728,1,Monocliffs,44.04610000,-80.09430000,2
11729,1,North Bay,46.33710000,-79.43190000,2
11730,172,Patuxent River Park,38.77380000,-76.71130000,2
11731,172,PRP Mobile,38.77380000,-76.71130000,0
11732,76,RT1_autumn_2017,54.18740000,7.87360000,1
11733,10,SBL_WestLight_2,43.93210000,-60.02280000,1
11734,10,SBL_WestLight1,43.93210000,-60.02280000,1
11735,256,Tower1,47.19810000,-93.23680000,1
11736,197,Wells1,46.12140000,-64.24070000,1
11737,197,Wells2,46.12140000,-64.24070000,1
11738,117,Kourou2,5.16040000,-52.62760000,2
11739,3,,48.61690000,-69.09880000,2
11740,236,00C2,-22.50120000,117.42380000,2
11741,235,04C0,-20.55760000,120.24470000,2
11742,236,052F,-23.03980000,117.69540000,1
11743,236,052F-3,-22.44290000,117.30720000,2
11744,236,09B2,-22.51380000,119.02230000,1
11745,236,0AD8,-22.57510000,117.33240000,2
11746,236,0DAF,-22.53800000,117.11230000,2
11747,236,0EEA,-22.43970000,118.86340000,1
11748,236,0EEA-2,-22.55520000,117.41020000,2
11749,236,1213,-22.37650000,118.92240000,1
11750,236,1213-2,-22.51850000,117.22110000,2
11751,236,12D5,-22.52770000,118.99420000,1
11752,236,15FE,-22.51490000,118.97560000,1
11753,236,15FE_2,-22.46020000,117.46680000,2
11754,236,1629,-22.54580000,119.02020000,1
11755,236,1629-2,-22.49310000,117.27680000,2
11756,235,1BDB,-22.61700000,119.22490000,1
11757,236,1E8F,-23.19650000,117.50960000,1
11758,236,1E8F-2,-22.23730000,117.09050000,2
11759,236,1FCB,-22.27860000,117.25980000,2
11760,235,1FF8,-22.64750000,119.25900000,1
11761,236,285A,-22.50810000,119.10730000,1
11762,236,285A-2,-22.57490000,117.39040000,2
11763,236,2C04,-23.18710000,117.47420000,1
11764,236,2C04-2,-22.62880000,117.11640000,2
11765,236,2C40,-22.53480000,119.04330000,1
11766,236,2EA7,-23.22840000,117.36190000,1
11767,236,2EA7-2,-22.62180000,117.12040000,2
11768,123,33_BirdmoveMobile,53.68330000,8.01670000,1
11769,236,36B7,-23.21150000,117.64510000,1
11770,236,37F2,-22.53160000,119.00920000,1
11771,235,37F2_2,-23.39270000,119.61690000,1
11772,236,3803,-22.53320000,117.13170000,2
11773,236,3897,-22.51040000,118.98960000,1
11774,235,3897_2,-20.54530000,120.25640000,2
11775,235,39CD,-20.53080000,120.24580000,2
11776,235,3B01,-22.67170000,119.25320000,1
11777,235,3B27,-22.61350000,119.18900000,1
11778,235,3E53,-20.56360000,120.24800000,1
11779,67,4 Mile Beach,58.76900000,-93.97100000,1
11780,67,4 Mile Beach2,58.76920000,-93.97110000,1
11781,235,403C,-22.93170000,118.66360000,2
11782,236,4135,-23.21260000,117.54360000,1
11783,236,4135-2,-22.56550000,117.25840000,2
11784,236,4430-2,-22.31820000,117.53650000,2
11785,236,44DE,-22.35010000,118.83560000,1
11786,236,44DE-2,-22.72090000,118.26750000,1
11787,236,44DE-3,-22.26410000,117.23510000,2
11788,235,466D,-22.99540000,118.76080000,2
11789,236,4A0E,-22.51370000,119.02220000,1
11790,235,4A0E_2,-23.40600000,119.66230000,1
11791,236,4A3E,-23.14640000,117.90950000,1
11792,236,4A3E-2,-22.37270000,117.45970000,2
11793,235,4B78,-22.67470000,119.30620000,1
11794,235,4B91,-20.58470000,120.25170000,1
11795,236,4CB8,-23.19000000,117.43330000,1
11796,236,4CB8-2,-22.25880000,117.22040000,2
11797,236,51AD,-23.19620000,117.49540000,1
11798,236,51AD-2,-22.62900000,117.13690000,2
11799,236,521F,-22.40060000,117.53330000,2
11800,236,522B,-23.20520000,117.59960000,1
11801,236,522B-2,-22.56220000,117.32440000,2
11802,235,5281,-22.92760000,118.81670000,2
11803,236,53E7,-23.20450000,117.52040000,2
11804,236,53E7,-23.20320000,117.51830000,1
11805,236,5751,-23.20860000,117.53800000,1
11806,236,5751-2,-23.19010000,117.49070000,2
11807,236,5B80-2,-23.18870000,117.48170000,1
11808,236,5BE8,-23.21390000,117.54240000,1
11809,236,5BE8-2,-23.21760000,117.54290000,2
11810,236,5CAA,-23.17310000,117.40940000,1
11811,235,5D68,-23.43120000,119.60420000,1
11812,236,5D68_2,-22.36950000,119.07290000,1
11813,235,602F,-22.63430000,119.23710000,1
11814,236,60A5,-22.46670000,118.98420000,1
11815,236,60A5-2,-22.43890000,117.49500000,2
11816,235,60D8,-22.94760000,118.95040000,2
11817,235,60EB,-23.00340000,119.02150000,2
11818,236,6405,-23.22150000,117.55060000,1
11819,236,6405_2,-23.22150000,117.55070000,1
11820,236,6405-5,-22.64690000,117.24610000,2
11821,236,67FD,-22.50170000,117.45060000,2
11822,235,697A,-22.97390000,119.01330000,2
11823,235,69A2,-22.62850000,119.21610000,1
11824,236,6E4E,-22.59650000,117.35430000,2
11825,236,7237,-22.59770000,117.30890000,2
11826,236,7295,-22.90500000,117.62050000,2
11827,236,72A6,-23.21480000,117.61840000,1
11828,236,76A9,-22.56010000,119.05890000,1
11829,235,76A9_2,-20.54170000,120.23920000,1
11830,235,76F0,-23.02870000,119.13300000,2
11831,236,8475,-22.38060000,117.38010000,2
11832,236,8619,-22.53220000,117.42860000,1
11833,236,8619-2,-22.42700000,117.48440000,2
11834,235,8664,-22.65710000,119.28500000,1
11835,236,8789,-22.54730000,119.03510000,1
11836,236,8AC3,-22.54280000,119.02580000,1
11837,236,8AC3-2,-23.21410000,117.66700000,1
11838,236,934E,-22.41100000,119.00490000,1
11839,236,934E_2,-22.45450000,117.50670000,2
11840,236,9640-2,-22.23080000,117.12530000,2
11841,236,964A-2,-22.52490000,117.17560000,2
11842,236,9869,-22.54930000,119.04690000,1
11843,235,9869_2,-20.54150000,120.24360000,1
11844,236,9869-2,-23.21320000,117.64460000,1
11845,236,98A0,-22.57810000,117.34810000,2
11846,236,9C43,-22.51630000,119.04980000,1
11847,236,9E15,-23.16930000,117.38350000,2
11848,236,9E54,-23.31700000,117.60110000,1
11849,236,A080,-23.09960000,117.50640000,1
11850,236,A080-2,-22.33300000,117.40170000,2
11851,235,A4D5,-22.98550000,118.73860000,2
11852,235,A694,-22.99290000,118.82510000,2
11853,236,A77F,-22.52770000,118.99410000,1
11854,236,A77F-2,-22.59020000,117.33290000,2
11855,235,A8BD,-20.54690000,120.23220000,2
11856,235,A97D,-20.54810000,120.25340000,1
11857,236,A97D_2,-22.52680000,119.03520000,1
11858,236,AA0A,-22.57110000,117.37270000,2
11859,236,AA5B,-22.52630000,119.05250000,1
11860,236,AC48,-23.21670000,117.53650000,1
11861,235,AEF7,-22.90360000,119.02560000,2
11862,235,AFB0,-22.70310000,119.29820000,1
11863,241,AfghanCemetery,-15.47890000,128.13970000,1
11864,265,Agave Hill,33.63880000,-116.39770000,1
11865,1,Anderson,42.67280000,-80.50230000,1
11866,1,Anderson_2,42.67280000,-80.50330000,1
11867,3,Anse-au-Griffon,48.96010000,-64.33900000,2
11868,74,Arcadia ,42.29750000,-72.63390000,1
11869,74,Arcadia,42.68070000,-72.63390000,1
11870,203,Ashdad,45.34950000,-76.77230000,2
