{"type":"FeatureCollection","features":[{"type":"Feature","geometry":{"type":"Point","coordinates":[-84.31,55.24]},"properties":{"ID":"1882","projectID":"40","name":"Burntpoint","lastEditedDt":"8/14/2017 17:26:36","status":"2","description":"Site ID:  1882 <br>Landowner ID:  NA Last edited on:  8/14/2017 17:26:36"}},{"type":"Feature","geometry":{"type":"Point","coordinates":[-84.31,55.24]},"properties":{"ID":"1883","projectID":"40","name":"Burntpoint","lastEditedDt":"8/14/2017 17:26:36","status":"1","description":"Site ID:  1883 <br>Landowner ID:  NA Last edited on:  8/14/2017 17:26:36"}},{"type":"Feature","geometry":{"type":"Point","coordinates":[-93.9,58.75]},"properties":{"ID":"1884","projectID":"40","name":"Churchill-Bird Cove","lastEditedDt":"8/14/2017 17:26:36","status":"1","description":"Site ID:  1884 <br>Landowner ID:  NA Last edited on:  8/14/2017 17:26:36"}},{"type":"Feature","geometry":{"type":"Point","coordinates":[-93.83,58.67]},"properties":{"ID":"1885","projectID":"40","name":"Churchill-Fen","lastEditedDt":"8/14/2017 17:26:36","status":"1","description":"Site ID:  1885 <br>Landowner ID:  NA Last edited on:  8/14/2017 17:26:36"}},{"type":"Feature","geometry":{"type":"Point","coordinates":[-82.48,62.85]},"properties":{"ID":"1886","projectID":"40","name":"COATSI","lastEditedDt":"8/14/2017 17:26:36","status":"2","description":"Site ID:  1886 <br>Landowner ID:  NA Last edited on:  8/14/2017 17:26:36"}},{"type":"Feature","geometry":{"type":"Point","coordinates":[-81.69,63.98]},"properties":{"ID":"1887","projectID":"40","name":"EASTBAY","lastEditedDt":"8/14/2017 17:26:36","status":"2","description":"Site ID:  1887 <br>Landowner ID:  NA Last edited on:  8/14/2017 17:26:36"}},{"type":"Feature","geometry":{"type":"Point","coordinates":[-91.67,57.12]},"properties":{"ID":"1888","projectID":"40","name":"NANUK","lastEditedDt":"8/14/2017 17:26:36","status":"1","description":"Site ID:  1888 <br>Landowner ID:  NA Last edited on:  8/14/2017 17:26:36"}},{"type":"Feature","geometry":{"type":"Point","coordinates":[-91.67,57.12]},"properties":{"ID":"1889","projectID":"40","name":"NANUK","lastEditedDt":"8/14/2017 17:26:36","status":"1","description":"Site ID:  1889 <br>Landowner ID:  NA Last edited on:  8/14/2017 17:26:36"}},{"type":"Feature","geometry":{"type":"Point","coordinates":[-80.95,53.1]},"properties":{"ID":"2569","projectID":"40","name":"Akimiski","lastEditedDt":"7/23/2018 14:59:01","status":"2","description":"Site ID:  2569 <br>Landowner ID:  NA Last edited on:  7/23/2018 14:59:01"}}]}