{"type":"FeatureCollection","features":[{"type":"Feature","geometry":{"type":"Point","coordinates":[-87.43,39.49]},"properties":{"ID":"2325","projectID":"148","landOwnerID":"2325","name":"Wabashiki S1","lastEditedDt":"8/14/2017 17:26:36","status":"1","description":"Site ID:  2325 <br>Landowner ID:  2325 Last edited on:  8/14/2017 17:26:36"}},{"type":"Feature","geometry":{"type":"Point","coordinates":[-86.88,39.47]},"properties":{"ID":"2326","projectID":"148","landOwnerID":"2326","name":"Lieber S3","lastEditedDt":"8/14/2017 17:26:36","status":"1","description":"Site ID:  2326 <br>Landowner ID:  2326 Last edited on:  8/14/2017 17:26:36"}},{"type":"Feature","geometry":{"type":"Point","coordinates":[-86.41,39.32]},"properties":{"ID":"2327","projectID":"148","landOwnerID":"2328","name":"MorganMonroe S5","lastEditedDt":"8/14/2017 17:26:36","status":"1","description":"Site ID:  2327 <br>Landowner ID:  2328 Last edited on:  8/14/2017 17:26:36"}},{"type":"Feature","geometry":{"type":"Point","coordinates":[-86.22,39.16]},"properties":{"ID":"2328","projectID":"148","landOwnerID":"2329","name":"Brown S6","lastEditedDt":"8/14/2017 17:26:36","status":"1","description":"Site ID:  2328 <br>Landowner ID:  2329 Last edited on:  8/14/2017 17:26:36"}},{"type":"Feature","geometry":{"type":"Point","coordinates":[-85.59,39.06]},"properties":{"ID":"2329","projectID":"148","landOwnerID":"2331","name":"Clarkson S8","lastEditedDt":"8/14/2017 17:26:36","status":"1","description":"Site ID:  2329 <br>Landowner ID:  2331 Last edited on:  8/14/2017 17:26:36"}},{"type":"Feature","geometry":{"type":"Point","coordinates":[-85.2,39.06]},"properties":{"ID":"2330","projectID":"148","landOwnerID":"2332","name":"Versailles S9","lastEditedDt":"8/14/2017 17:26:36","status":"1","description":"Site ID:  2330 <br>Landowner ID:  2332 Last edited on:  8/14/2017 17:26:36"}},{"type":"Feature","geometry":{"type":"Point","coordinates":[-84.84,39.11]},"properties":{"ID":"2331","projectID":"148","landOwnerID":"2333","name":"Oxbow S10","lastEditedDt":"8/14/2017 17:26:36","status":"1","description":"Site ID:  2331 <br>Landowner ID:  2333 Last edited on:  8/14/2017 17:26:36"}},{"type":"Feature","geometry":{"type":"Point","coordinates":[-84.56,38.96]},"properties":{"ID":"2332","projectID":"148","landOwnerID":"2334","name":"Lincoln Ridge S11","lastEditedDt":"8/14/2017 17:26:36","status":"1","description":"Site ID:  2332 <br>Landowner ID:  2334 Last edited on:  8/14/2017 17:26:36"}},{"type":"Feature","geometry":{"type":"Point","coordinates":[-84.32,39.03]},"properties":{"ID":"2333","projectID":"148","landOwnerID":"2335","name":"Woodland Mound S12","lastEditedDt":"8/14/2017 17:26:36","status":"1","description":"Site ID:  2333 <br>Landowner ID:  2335 Last edited on:  8/14/2017 17:26:36"}},{"type":"Feature","geometry":{"type":"Point","coordinates":[-85.93,39.2]},"properties":{"ID":"2334","projectID":"148","landOwnerID":"2503","name":"Columbus S7","lastEditedDt":"8/14/2017 17:26:36","status":"1","description":"Site ID:  2334 <br>Landowner ID:  2503 Last edited on:  8/14/2017 17:26:36"}}]}