{"type":"FeatureCollection","features":[{"type":"Feature","geometry":{"type":"Point","coordinates":[-67.55,44.62]},"properties":{"ID":"1825","projectID":"32","name":"LOOKSPT","lastEditedDt":"8/14/2017 17:26:36","status":"1","description":"Site ID:  1825 <br>Landowner ID:  NA Last edited on:  8/14/2017 17:26:36"}},{"type":"Feature","geometry":{"type":"Point","coordinates":[-70.12,41.27]},"properties":{"ID":"1826","projectID":"32","name":"MILLBROOK","lastEditedDt":"8/14/2017 17:26:36","status":"1","description":"Site ID:  1826 <br>Landowner ID:  NA Last edited on:  8/14/2017 17:26:36"}},{"type":"Feature","geometry":{"type":"Point","coordinates":[-68.12,43.96]},"properties":{"ID":"1827","projectID":"32","landOwnerID":"436","name":"MDR","lastEditedDt":"8/14/2017 17:26:36","status":"1","description":"Site ID:  1827 <br>Landowner ID:  436 Last edited on:  8/14/2017 17:26:36"}},{"type":"Feature","geometry":{"type":"Point","coordinates":[-68.12,43.96]},"properties":{"ID":"1828","projectID":"32","landOwnerID":"436","name":"MDR","lastEditedDt":"8/14/2017 17:26:36","status":"1","description":"Site ID:  1828 <br>Landowner ID:  436 Last edited on:  8/14/2017 17:26:36"}},{"type":"Feature","geometry":{"type":"Point","coordinates":[-67.57,44.47]},"properties":{"ID":"1829","projectID":"32","landOwnerID":"437","name":"GWASS","lastEditedDt":"8/14/2017 17:26:36","status":"1","description":"Site ID:  1829 <br>Landowner ID:  437 Last edited on:  8/14/2017 17:26:36"}},{"type":"Feature","geometry":{"type":"Point","coordinates":[-65.57,44.47]},"properties":{"ID":"1830","projectID":"32","landOwnerID":"437","name":"GWASS","lastEditedDt":"8/14/2017 17:26:36","status":"1","description":"Site ID:  1830 <br>Landowner ID:  437 Last edited on:  8/14/2017 17:26:36"}},{"type":"Feature","geometry":{"type":"Point","coordinates":[-68.58,44.42]},"properties":{"ID":"1831","projectID":"32","landOwnerID":"438","name":"BHILL","lastEditedDt":"8/14/2017 17:26:36","status":"1","description":"Site ID:  1831 <br>Landowner ID:  438 Last edited on:  8/14/2017 17:26:36"}},{"type":"Feature","geometry":{"type":"Point","coordinates":[-67.9,44.41]},"properties":{"ID":"1832","projectID":"32","landOwnerID":"439","name":"PMP","lastEditedDt":"8/14/2017 17:26:36","status":"2","description":"Site ID:  1832 <br>Landowner ID:  439 Last edited on:  8/14/2017 17:26:36"}},{"type":"Feature","geometry":{"type":"Point","coordinates":[-68.43,44.23]},"properties":{"ID":"1833","projectID":"32","landOwnerID":"439","name":"SHIP","lastEditedDt":"8/14/2017 17:26:36","status":"1","description":"Site ID:  1833 <br>Landowner ID:  439 Last edited on:  8/14/2017 17:26:36"}},{"type":"Feature","geometry":{"type":"Point","coordinates":[-67.28,44.62]},"properties":{"ID":"1834","projectID":"32","landOwnerID":"440","name":"CUTLER","lastEditedDt":"8/14/2017 17:26:36","status":"1","description":"Site ID:  1834 <br>Landowner ID:  440 Last edited on:  8/14/2017 17:26:36"}},{"type":"Feature","geometry":{"type":"Point","coordinates":[-67.28,44.62]},"properties":{"ID":"1835","projectID":"32","landOwnerID":"440","name":"CUTLER","lastEditedDt":"8/14/2017 17:26:36","status":"1","description":"Site ID:  1835 <br>Landowner ID:  440 Last edited on:  8/14/2017 17:26:36"}},{"type":"Feature","geometry":{"type":"Point","coordinates":[-68.34,44.31]},"properties":{"ID":"1836","projectID":"32","landOwnerID":"441","name":"MTDESERTISL","lastEditedDt":"8/14/2017 17:26:36","status":"1","description":"Site ID:  1836 <br>Landowner ID:  441 Last edited on:  8/14/2017 17:26:36"}},{"type":"Feature","geometry":{"type":"Point","coordinates":[-70.64,41.44]},"properties":{"ID":"1837","projectID":"32","landOwnerID":"442","name":"HOFT","lastEditedDt":"8/14/2017 17:26:36","status":"1","description":"Site ID:  1837 <br>Landowner ID:  442 Last edited on:  8/14/2017 17:26:36"}},{"type":"Feature","geometry":{"type":"Point","coordinates":[-70.7,41.42]},"properties":{"ID":"1838","projectID":"32","landOwnerID":"625","name":"CTN","lastEditedDt":"8/14/2017 17:26:36","status":"1","description":"Site ID:  1838 <br>Landowner ID:  625 Last edited on:  8/14/2017 17:26:36"}},{"type":"Feature","geometry":{"type":"Point","coordinates":[-70.66,41.44]},"properties":{"ID":"1839","projectID":"32","landOwnerID":"625","name":"GOETH","lastEditedDt":"8/14/2017 17:26:36","status":"1","description":"Site ID:  1839 <br>Landowner ID:  625 Last edited on:  8/14/2017 17:26:36"}},{"type":"Feature","geometry":{"type":"Point","coordinates":[-70.64,41.44]},"properties":{"ID":"1840","projectID":"32","landOwnerID":"626","name":"HOFT","lastEditedDt":"8/14/2017 17:26:36","status":"1","description":"Site ID:  1840 <br>Landowner ID:  626 Last edited on:  8/14/2017 17:26:36"}},{"type":"Feature","geometry":{"type":"Point","coordinates":[-70.75,41.46]},"properties":{"ID":"1841","projectID":"32","landOwnerID":"627","name":"NAUSH","lastEditedDt":"8/14/2017 17:26:36","status":"1","description":"Site ID:  1841 <br>Landowner ID:  627 Last edited on:  8/14/2017 17:26:36"}},{"type":"Feature","geometry":{"type":"Point","coordinates":[-70.79,42.74]},"properties":{"ID":"1842","projectID":"32","landOwnerID":"659","name":"HELLCAT","lastEditedDt":"8/14/2017 17:26:36","status":"1","description":"Site ID:  1842 <br>Landowner ID:  659 Last edited on:  8/14/2017 17:26:36"}}]}