{"type":"FeatureCollection","features":[{"type":"Feature","geometry":{"type":"Point","coordinates":[-74.71,39.09]},"properties":{"ID":"1687","projectID":"14","name":"AVNJ","lastEditedDt":"7/12/2018 10:21:45","status":"2","description":"Site ID:  1687 <br>Landowner ID:  NA Last edited on:  7/12/2018 10:21:45"}},{"type":"Feature","geometry":{"type":"Point","coordinates":[-75.91,36.67]},"properties":{"ID":"1688","projectID":"14","name":"BBVA","lastEditedDt":"7/12/2018 10:21:45","status":"2","description":"Site ID:  1688 <br>Landowner ID:  NA Last edited on:  7/12/2018 10:21:45"}},{"type":"Feature","geometry":{"type":"Point","coordinates":[-71.55,41.15]},"properties":{"ID":"1689","projectID":"14","name":"BISE","lastEditedDt":"7/12/2018 10:21:45","status":"1","description":"Site ID:  1689 <br>Landowner ID:  NA Last edited on:  7/12/2018 10:21:45"}},{"type":"Feature","geometry":{"type":"Point","coordinates":[-75.08,38.77]},"properties":{"ID":"1690","projectID":"14","name":"CHDE","lastEditedDt":"7/12/2018 10:21:45","status":"2","description":"Site ID:  1690 <br>Landowner ID:  NA Last edited on:  7/12/2018 10:21:45"}},{"type":"Feature","geometry":{"type":"Point","coordinates":[-75.37,37.86]},"properties":{"ID":"1691","projectID":"14","name":"CHIN","lastEditedDt":"7/12/2018 10:21:45","status":"2","description":"Site ID:  1691 <br>Landowner ID:  NA Last edited on:  7/12/2018 10:21:45"}},{"type":"Feature","geometry":{"type":"Point","coordinates":[-73.97,40.57]},"properties":{"ID":"1692","projectID":"14","name":"CONY","lastEditedDt":"7/12/2018 10:21:45","status":"2","description":"Site ID:  1692 <br>Landowner ID:  NA Last edited on:  7/12/2018 10:21:45"}},{"type":"Feature","geometry":{"type":"Point","coordinates":[-67.16,17.97]},"properties":{"ID":"1693","projectID":"14","name":"CRPR","lastEditedDt":"7/12/2018 10:21:45","status":"1","description":"Site ID:  1693 <br>Landowner ID:  NA Last edited on:  7/12/2018 10:21:45"}},{"type":"Feature","geometry":{"type":"Point","coordinates":[-70.06,41.3]},"properties":{"ID":"1694","projectID":"14","name":"CTPT","lastEditedDt":"7/12/2018 10:21:45","status":"2","description":"Site ID:  1694 <br>Landowner ID:  NA Last edited on:  7/12/2018 10:21:45"}},{"type":"Feature","geometry":{"type":"Point","coordinates":[-65.28,18.3]},"properties":{"ID":"1695","projectID":"14","name":"CUPR","lastEditedDt":"7/12/2018 10:21:45","status":"1","description":"Site ID:  1695 <br>Landowner ID:  NA Last edited on:  7/12/2018 10:21:45"}},{"type":"Feature","geometry":{"type":"Point","coordinates":[-70.19,41.29]},"properties":{"ID":"1696","projectID":"14","name":"ELPT","lastEditedDt":"7/12/2018 10:21:45","status":"1","description":"Site ID:  1696 <br>Landowner ID:  NA Last edited on:  7/12/2018 10:21:45"}},{"type":"Feature","geometry":{"type":"Point","coordinates":[-70.19,41.29]},"properties":{"ID":"1697","projectID":"14","name":"ELPT","lastEditedDt":"7/12/2018 10:21:45","status":"1","description":"Site ID:  1697 <br>Landowner ID:  NA Last edited on:  7/12/2018 10:21:45"}},{"type":"Feature","geometry":{"type":"Point","coordinates":[-70.19,41.29]},"properties":{"ID":"1698","projectID":"14","name":"ELPT","lastEditedDt":"7/12/2018 10:21:45","status":"1","description":"Site ID:  1698 <br>Landowner ID:  NA Last edited on:  7/12/2018 10:21:45"}},{"type":"Feature","geometry":{"type":"Point","coordinates":[-73.21,40.63]},"properties":{"ID":"1699","projectID":"14","name":"FRIS","lastEditedDt":"7/12/2018 10:21:45","status":"1","description":"Site ID:  1699 <br>Landowner ID:  NA Last edited on:  7/12/2018 10:21:45"}},{"type":"Feature","geometry":{"type":"Point","coordinates":[-72.11,41.2]},"properties":{"ID":"1700","projectID":"14","name":"GGIS","lastEditedDt":"7/12/2018 10:21:45","status":"2","description":"Site ID:  1700 <br>Landowner ID:  NA Last edited on:  7/12/2018 10:21:45"}},{"type":"Feature","geometry":{"type":"Point","coordinates":[-70.27,41.64]},"properties":{"ID":"1702","projectID":"14","name":"GTPF","lastEditedDt":"7/12/2018 10:21:45","status":"1","description":"Site ID:  1702 <br>Landowner ID:  NA Last edited on:  7/12/2018 10:21:45"}},{"type":"Feature","geometry":{"type":"Point","coordinates":[-70.04,41.39]},"properties":{"ID":"1703","projectID":"14","name":"GTPT","lastEditedDt":"8/14/2017 17:26:36","status":"2","description":"Site ID:  1703 <br>Landowner ID:  NA Last edited on:  8/14/2017 17:26:36"}},{"type":"Feature","geometry":{"type":"Point","coordinates":[-70.04,41.39]},"properties":{"ID":"1704","projectID":"14","name":"GTPT","lastEditedDt":"8/14/2017 17:26:36","status":"1","description":"Site ID:  1704 <br>Landowner ID:  NA Last edited on:  8/14/2017 17:26:36"}},{"type":"Feature","geometry":{"type":"Point","coordinates":[-73.82,40.61]},"properties":{"ID":"1705","projectID":"14","name":"JBNY","lastEditedDt":"8/14/2017 17:26:36","status":"2","description":"Site ID:  1705 <br>Landowner ID:  NA Last edited on:  8/14/2017 17:26:36"}},{"type":"Feature","geometry":{"type":"Point","coordinates":[-77.9,24.85]},"properties":{"ID":"1706","projectID":"14","name":"KCBS","lastEditedDt":"8/14/2017 17:26:36","status":"1","description":"Site ID:  1706 <br>Landowner ID:  NA Last edited on:  8/14/2017 17:26:36"}},{"type":"Feature","geometry":{"type":"Point","coordinates":[-66.51,18.47]},"properties":{"ID":"1707","projectID":"14","name":"LHPR","lastEditedDt":"8/14/2017 17:26:36","status":"1","description":"Site ID:  1707 <br>Landowner ID:  NA Last edited on:  8/14/2017 17:26:36"}},{"type":"Feature","geometry":{"type":"Point","coordinates":[-67.04,17.96]},"properties":{"ID":"1708","projectID":"14","name":"MIPR","lastEditedDt":"8/14/2017 17:26:36","status":"2","description":"Site ID:  1708 <br>Landowner ID:  NA Last edited on:  8/14/2017 17:26:36"}},{"type":"Feature","geometry":{"type":"Point","coordinates":[-71.86,41.05]},"properties":{"ID":"1709","projectID":"14","name":"MNTK","lastEditedDt":"8/14/2017 17:26:36","status":"1","description":"Site ID:  1709 <br>Landowner ID:  NA Last edited on:  8/14/2017 17:26:36"}},{"type":"Feature","geometry":{"type":"Point","coordinates":[-71.85,41.07]},"properties":{"ID":"1710","projectID":"14","name":"MNTK","lastEditedDt":"8/14/2017 17:26:36","status":"2","description":"Site ID:  1710 <br>Landowner ID:  NA Last edited on:  8/14/2017 17:26:36"}},{"type":"Feature","geometry":{"type":"Point","coordinates":[-69.98,41.6]},"properties":{"ID":"1711","projectID":"14","name":"MNYN","lastEditedDt":"8/14/2017 17:26:36","status":"1","description":"Site ID:  1711 <br>Landowner ID:  NA Last edited on:  8/14/2017 17:26:36"}},{"type":"Feature","geometry":{"type":"Point","coordinates":[-69.98,41.6]},"properties":{"ID":"1712","projectID":"14","name":"MNYN","lastEditedDt":"8/14/2017 17:26:36","status":"2","description":"Site ID:  1712 <br>Landowner ID:  NA Last edited on:  8/14/2017 17:26:36"}},{"type":"Feature","geometry":{"type":"Point","coordinates":[-70.01,41.55]},"properties":{"ID":"1713","projectID":"14","name":"MNYS","lastEditedDt":"8/14/2017 17:26:36","status":"2","description":"Site ID:  1713 <br>Landowner ID:  NA Last edited on:  8/14/2017 17:26:36"}},{"type":"Feature","geometry":{"type":"Point","coordinates":[-70.3,41.33]},"properties":{"ID":"1714","projectID":"14","name":"MUSK","lastEditedDt":"8/14/2017 17:26:36","status":"1","description":"Site ID:  1714 <br>Landowner ID:  NA Last edited on:  8/14/2017 17:26:36"}},{"type":"Feature","geometry":{"type":"Point","coordinates":[-71.88,41.3]},"properties":{"ID":"1715","projectID":"14","name":"NAPA","lastEditedDt":"8/14/2017 17:26:36","status":"2","description":"Site ID:  1715 <br>Landowner ID:  NA Last edited on:  8/14/2017 17:26:36"}},{"type":"Feature","geometry":{"type":"Point","coordinates":[-74.34,39.42]},"properties":{"ID":"1716","projectID":"14","name":"NBNJ","lastEditedDt":"8/14/2017 17:26:36","status":"1","description":"Site ID:  1716 <br>Landowner ID:  NA Last edited on:  8/14/2017 17:26:36"}},{"type":"Feature","geometry":{"type":"Point","coordinates":[-70.81,41.26]},"properties":{"ID":"1718","projectID":"14","name":"NOMA","lastEditedDt":"8/14/2017 17:26:36","status":"2","description":"Site ID:  1718 <br>Landowner ID:  NA Last edited on:  8/14/2017 17:26:36"}},{"type":"Feature","geometry":{"type":"Point","coordinates":[-70.81,41.25]},"properties":{"ID":"1719","projectID":"14","name":"NOMS","lastEditedDt":"8/14/2017 17:26:36","status":"2","description":"Site ID:  1719 <br>Landowner ID:  NA Last edited on:  8/14/2017 17:26:36"}},{"type":"Feature","geometry":{"type":"Point","coordinates":[-72.32,41.28]},"properties":{"ID":"1720","projectID":"14","name":"OSCT","lastEditedDt":"8/14/2017 17:26:36","status":"2","description":"Site ID:  1720 <br>Landowner ID:  NA Last edited on:  8/14/2017 17:26:36"}},{"type":"Feature","geometry":{"type":"Point","coordinates":[-75.61,37.57]},"properties":{"ID":"1721","projectID":"14","name":"PARR","lastEditedDt":"8/14/2017 17:26:36","status":"2","description":"Site ID:  1721 <br>Landowner ID:  NA Last edited on:  8/14/2017 17:26:36"}},{"type":"Feature","geometry":{"type":"Point","coordinates":[-72.16,41.18]},"properties":{"ID":"1722","projectID":"14","name":"PLIS","lastEditedDt":"8/14/2017 17:26:36","status":"1","description":"Site ID:  1722 <br>Landowner ID:  NA Last edited on:  8/14/2017 17:26:36"}},{"type":"Feature","geometry":{"type":"Point","coordinates":[-70.24,42.06]},"properties":{"ID":"1723","projectID":"14","name":"RCPT","lastEditedDt":"8/14/2017 17:26:36","status":"1","description":"Site ID:  1723 <br>Landowner ID:  NA Last edited on:  8/14/2017 17:26:36"}},{"type":"Feature","geometry":{"type":"Point","coordinates":[-74.32,39.5]},"properties":{"ID":"1724","projectID":"14","name":"RTNJ","lastEditedDt":"8/14/2017 17:26:36","status":"2","description":"Site ID:  1724 <br>Landowner ID:  NA Last edited on:  8/14/2017 17:26:36"}},{"type":"Feature","geometry":{"type":"Point","coordinates":[-71.24,41.47]},"properties":{"ID":"1725","projectID":"14","name":"SACH","lastEditedDt":"8/14/2017 17:26:36","status":"2","description":"Site ID:  1725 <br>Landowner ID:  NA Last edited on:  8/14/2017 17:26:36"}},{"type":"Feature","geometry":{"type":"Point","coordinates":[-73.98,40.42]},"properties":{"ID":"1727","projectID":"14","name":"SHNJ","lastEditedDt":"8/14/2017 17:26:36","status":"2","description":"Site ID:  1727 <br>Landowner ID:  NA Last edited on:  8/14/2017 17:26:36"}},{"type":"Feature","geometry":{"type":"Point","coordinates":[-75.92,37.13]},"properties":{"ID":"1728","projectID":"14","name":"SKID","lastEditedDt":"8/14/2017 17:26:36","status":"2","description":"Site ID:  1728 <br>Landowner ID:  NA Last edited on:  8/14/2017 17:26:36"}},{"type":"Feature","geometry":{"type":"Point","coordinates":[-69.98,41.61]},"properties":{"ID":"1729","projectID":"14","name":"TERN","lastEditedDt":"8/14/2017 17:26:36","status":"1","description":"Site ID:  1729 <br>Landowner ID:  NA Last edited on:  8/14/2017 17:26:36"}},{"type":"Feature","geometry":{"type":"Point","coordinates":[-71.57,41.37]},"properties":{"ID":"1730","projectID":"14","name":"TRUS","lastEditedDt":"8/14/2017 17:26:36","status":"2","description":"Site ID:  1730 <br>Landowner ID:  NA Last edited on:  8/14/2017 17:26:36"}},{"type":"Feature","geometry":{"type":"Point","coordinates":[-70.5,41.55]},"properties":{"ID":"1731","projectID":"14","name":"WAQT","lastEditedDt":"8/14/2017 17:26:36","status":"2","description":"Site ID:  1731 <br>Landowner ID:  NA Last edited on:  8/14/2017 17:26:36"}},{"type":"Feature","geometry":{"type":"Point","coordinates":[-69.97,41.91]},"properties":{"ID":"1732","projectID":"14","name":"WELL","lastEditedDt":"8/14/2017 17:26:36","status":"2","description":"Site ID:  1732 <br>Landowner ID:  NA Last edited on:  8/14/2017 17:26:36"}},{"type":"Feature","geometry":{"type":"Point","coordinates":[-70.66,41.68]},"properties":{"ID":"1733","projectID":"14","name":"WING","lastEditedDt":"8/14/2017 17:26:36","status":"2","description":"Site ID:  1733 <br>Landowner ID:  NA Last edited on:  8/14/2017 17:26:36"}},{"type":"Feature","geometry":{"type":"Point","coordinates":[-71.5,41.12]},"properties":{"ID":"2467","projectID":"14","name":"BIWF","lastEditedDt":"7/12/2018 10:21:45","status":"2","description":"Site ID:  2467 <br>Landowner ID:  NA Last edited on:  7/12/2018 10:21:45"}},{"type":"Feature","geometry":{"type":"Point","coordinates":[-71.59,41.14]},"properties":{"ID":"2469","projectID":"14","name":"BIBR","lastEditedDt":"7/12/2018 10:21:45","status":"1","description":"Site ID:  2469 <br>Landowner ID:  NA Last edited on:  7/12/2018 10:21:45"}},{"type":"Feature","geometry":{"type":"Point","coordinates":[-71.5,41.12]},"properties":{"ID":"2472","projectID":"14","name":"BIWF","lastEditedDt":"7/12/2018 10:21:45","status":"1","description":"Site ID:  2472 <br>Landowner ID:  NA Last edited on:  7/12/2018 10:21:45"}},{"type":"Feature","geometry":{"type":"Point","coordinates":[-73.21,40.63]},"properties":{"ID":"2505","projectID":"14","name":"FRIS","lastEditedDt":"7/12/2018 10:21:45","status":"2","description":"Site ID:  2505 <br>Landowner ID:  NA Last edited on:  7/12/2018 10:21:45"}},{"type":"Feature","geometry":{"type":"Point","coordinates":[-72.27,41.05]},"properties":{"ID":"2539","projectID":"14","name":"MASH","lastEditedDt":"6/22/2018 13:26:24","status":"2","description":"Site ID:  2539 <br>Landowner ID:  NA Last edited on:  6/22/2018 13:26:24"}},{"type":"Feature","geometry":{"type":"Point","coordinates":[-72.65,41.21]},"properties":{"ID":"2556","projectID":"14","name":"FALK","lastEditedDt":"7/12/2018 10:21:45","status":"2","description":"Site ID:  2556 <br>Landowner ID:  NA Last edited on:  7/12/2018 10:21:45"}},{"type":"Feature","geometry":{"type":"Point","coordinates":[-73.07,40.94]},"properties":{"ID":"2557","projectID":"14","name":"FRED","lastEditedDt":"7/12/2018 10:58:33","status":"2","description":"Site ID:  2557 <br>Landowner ID:  NA Last edited on:  7/12/2018 10:58:33"}},{"type":"Feature","geometry":{"type":"Point","coordinates":[-71.55,41.15]},"properties":{"ID":"2653","projectID":"14","name":"SELight","lastEditedDt":"10/30/2018 11:17:51","status":"2","description":"Site ID:  2653 <br>Landowner ID:  NA Last edited on:  10/30/2018 11:17:51"}},{"type":"Feature","geometry":{"type":"Point","coordinates":[-71.59,41.14]},"properties":{"ID":"2654","projectID":"14","name":"BlackrockNew","lastEditedDt":"10/30/2018 11:24:17","status":"2","description":"Site ID:  2654 <br>Landowner ID:  NA Last edited on:  10/30/2018 11:24:17"}},{"type":"Feature","geometry":{"type":"Point","coordinates":[-81.27,43]},"properties":{"ID":"2656","projectID":"14","name":"UWO-SSC","lastEditedDt":"10/30/2018 11:49:58","status":"1","description":"Site ID:  2656 <br>Landowner ID:  NA Last edited on:  10/30/2018 11:49:58"}},{"type":"Feature","geometry":{"type":"Point","coordinates":[-56.77,-36.3]},"properties":{"ID":"2738","projectID":"14","name":"RASA","lastEditedDt":"5/15/2019 12:43:51","status":"2","description":"Site ID:  2738 <br>Landowner ID:  NA Last edited on:  5/15/2019 12:43:51"}}]}