{
"data":[
  {
    "ID": 2535,
    "projectID": 197,
    "landOwnerID": 6024,
    "name": "Aube",
    "latitude": 45.92,
    "longitude": -65.22,
    "lastEditedDt": "8/12/2018 13:10:00"
  },
  {
    "ID": 2536,
    "projectID": 197,
    "landOwnerID": "NA",
    "name": "Degenhardts",
    "latitude": 45.93,
    "longitude": 65.25,
    "lastEditedDt": "8/12/2018 13:10:00"
  },
  {
    "ID": 2537,
    "projectID": 197,
    "landOwnerID": "NA",
    "name": "Gaudet",
    "latitude": 45.98,
    "longitude": -64.57,
    "lastEditedDt": "8/12/2018 13:10:00"
  },
  {
    "ID": 2538,
    "projectID": 197,
    "landOwnerID": "NA",
    "name": "Wells",
    "latitude": 46.12,
    "longitude": -64.24,
    "lastEditedDt": "8/12/2018 13:10:00"
  },
  {
    "ID": 2552,
    "projectID": 197,
    "landOwnerID": "NA",
    "name": "Cap Brule",
    "latitude": 46.23,
    "longitude": -64.49,
    "lastEditedDt": "8/12/2018 13:10:00"
  },
  {
    "ID": 2553,
    "projectID": 197,
    "landOwnerID": "NA",
    "name": "Tantramar",
    "latitude": 45.89,
    "longitude": -64.34,
    "lastEditedDt": "8/12/2018 13:10:00"
  },
  {
    "ID": 2777,
    "projectID": 197,
    "landOwnerID": "NA",
    "name": "Scoudouc Water Treatment Plant",
    "latitude": 46.14,
    "longitude": -64.56,
    "lastEditedDt": "6/21/2019 12:09:26"
  },
  {
    "ID": 2778,
    "projectID": 197,
    "landOwnerID": "NA",
    "name": "Perry Settlement",
    "latitude": 45.92,
    "longitude": -65.45,
    "lastEditedDt": "6/21/2019 12:13:53"
  },
  {
    "ID": 2779,
    "projectID": 197,
    "landOwnerID": "NA",
    "name": "Perry Settlement",
    "latitude": 45.92,
    "longitude": -65.45,
    "lastEditedDt": "6/21/2019 12:16:15"
  },
  {
    "ID": 2780,
    "projectID": 197,
    "landOwnerID": "NA",
    "name": "Langelaan",
    "latitude": 46.06,
    "longitude": -65.15,
    "lastEditedDt": "6/21/2019 12:19:18"
  },
  {
    "ID": 2781,
    "projectID": 197,
    "landOwnerID": "NA",
    "name": "Memramcook",
    "latitude": 45.98,
    "longitude": -64.56,
    "lastEditedDt": "6/21/2019 12:24:33"
  },
  {
    "ID": 2782,
    "projectID": 197,
    "landOwnerID": "NA",
    "name": "Salisbury Sewage Ponds",
    "latitude": 46.03,
    "longitude": -65.01,
    "lastEditedDt": "6/21/2019 12:51:51"
  },
  {
    "ID": 2830,
    "projectID": 197,
    "landOwnerID": "NA",
    "name": "Sussex",
    "latitude": 45.72,
    "longitude": -65.53,
    "lastEditedDt": "7/31/2019 12:58:20"
  },
  {
    "ID": 2851,
    "projectID": 197,
    "landOwnerID": "NA",
    "name": "Estabrooks",
    "latitude": 45.93,
    "longitude": -64.34,
    "lastEditedDt": "8/8/2019 12:18:00"
  },
  {
    "ID": 2860,
    "projectID": 197,
    "landOwnerID": "NA",
    "name": "King",
    "latitude": 45.84,
    "longitude": -64.37,
    "lastEditedDt": "8/12/2019 7:45:59"
  },
  {
    "ID": 2903,
    "projectID": 197,
    "landOwnerID": "NA",
    "name": "Little Shemogue",
    "latitude": 46.11,
    "longitude": -64.02,
    "lastEditedDt": "9/18/2019 12:23:25"
  }
], "columns":[
  {
    "data": "ID",
    "name": "ID"
  },
  {
    "data": "projectID",
    "name": "Project ID"
  },
  {
    "data": "landOwnerID",
    "name": "Land Owner ID"
  },
  {
    "data": "name",
    "name": "Name"
  },
  {
    "data": "latitude",
    "name": "Latitude"
  },
  {
    "data": "longitude",
    "name": "Longitude"
  },
  {
    "data": "lastEditedDt",
    "name": "Last Edited Date"
  }
]
}
