{"type":"FeatureCollection","features":[{"type":"Feature","geometry":{"type":"Point","coordinates":[130.86,-12.37]},"properties":{"ID":"2697","projectID":"241","name":"DarwinLab","lastEditedDt":"3/13/2019 1:36:05","status":"2","description":"Site ID:  2697 <br>Landowner ID:  NA Last edited on:  3/13/2019 1:36:05"}},{"type":"Feature","geometry":{"type":"Point","coordinates":[128.12,-15.47]},"properties":{"ID":"2710","projectID":"241","name":"WyndhamTown","lastEditedDt":"4/4/2019 0:41:14","status":"2","description":"Site ID:  2710 <br>Landowner ID:  NA Last edited on:  4/4/2019 0:41:14"}},{"type":"Feature","geometry":{"type":"Point","coordinates":[128.14,-15.57]},"properties":{"ID":"2711","projectID":"241","name":"KingRiverRoad","lastEditedDt":"4/4/2019 1:34:48","status":"1","description":"Site ID:  2711 <br>Landowner ID:  NA Last edited on:  4/4/2019 1:34:48"}},{"type":"Feature","geometry":{"type":"Point","coordinates":[128.2,-15.54]},"properties":{"ID":"2712","projectID":"241","name":"WyndhamGolfCourse","lastEditedDt":"4/4/2019 1:39:19","status":"1","description":"Site ID:  2712 <br>Landowner ID:  NA Last edited on:  4/4/2019 1:39:19"}},{"type":"Feature","geometry":{"type":"Point","coordinates":[128.19,-15.46]},"properties":{"ID":"2735","projectID":"241","name":"Chimouli","lastEditedDt":"5/13/2019 21:39:29","status":"1","description":"Site ID:  2735 <br>Landowner ID:  NA Last edited on:  5/13/2019 21:39:29"}},{"type":"Feature","geometry":{"type":"Point","coordinates":[128.27,-15.59]},"properties":{"ID":"2736","projectID":"241","name":"ParryFarm","lastEditedDt":"5/14/2019 0:03:57","status":"1","description":"Site ID:  2736 <br>Landowner ID:  NA Last edited on:  5/14/2019 0:03:57"}},{"type":"Feature","geometry":{"type":"Point","coordinates":[127.98,-15.99]},"properties":{"ID":"2844","projectID":"241","name":"ElQuestro","lastEditedDt":"8/5/2019 21:58:22","status":"2","description":"Site ID:  2844 <br>Landowner ID:  NA Last edited on:  8/5/2019 21:58:22"}},{"type":"Feature","geometry":{"type":"Point","coordinates":[130.86,-12.37]},"properties":{"ID":"2937","projectID":"241","name":"Drone","lastEditedDt":"10/27/2019 23:59:24","status":"2","description":"Site ID:  2937 <br>Landowner ID:  NA Last edited on:  10/27/2019 23:59:24"}}]}