{"type":"FeatureCollection","features":[{"type":"Feature","geometry":{"type":"Point","coordinates":[-94.74,29.37]},"properties":{"ID":"2062","projectID":"65","name":"Bolivar_Flats","lastEditedDt":"8/14/2017 17:26:36","status":"2","description":"Site ID:  2062 <br>Landowner ID:  NA Last edited on:  8/14/2017 17:26:36"}},{"type":"Feature","geometry":{"type":"Point","coordinates":[-94.39,29.56]},"properties":{"ID":"2063","projectID":"65","name":"High_Island","lastEditedDt":"8/14/2017 17:26:36","status":"2","description":"Site ID:  2063 <br>Landowner ID:  NA Last edited on:  8/14/2017 17:26:36"}},{"type":"Feature","geometry":{"type":"Point","coordinates":[-97.28,27.54]},"properties":{"ID":"2064","projectID":"65","name":"Nighthawk","lastEditedDt":"8/14/2017 17:26:36","status":"2","description":"Site ID:  2064 <br>Landowner ID:  NA Last edited on:  8/14/2017 17:26:36"}},{"type":"Feature","geometry":{"type":"Point","coordinates":[-97.36,27.23]},"properties":{"ID":"2065","projectID":"65","name":"Padre Lemon","lastEditedDt":"8/14/2017 17:26:36","status":"2","description":"Site ID:  2065 <br>Landowner ID:  NA Last edited on:  8/14/2017 17:26:36"}},{"type":"Feature","geometry":{"type":"Point","coordinates":[-97.46,26.81]},"properties":{"ID":"2066","projectID":"65","name":"Pintail","lastEditedDt":"8/14/2017 17:26:36","status":"2","description":"Site ID:  2066 <br>Landowner ID:  NA Last edited on:  8/14/2017 17:26:36"}},{"type":"Feature","geometry":{"type":"Point","coordinates":[-97.2,26.07]},"properties":{"ID":"2067","projectID":"65","name":"PortIsabel","lastEditedDt":"8/14/2017 17:26:36","status":"2","description":"Site ID:  2067 <br>Landowner ID:  NA Last edited on:  8/14/2017 17:26:36"}},{"type":"Feature","geometry":{"type":"Point","coordinates":[-97.3,27.42]},"properties":{"ID":"2991","projectID":"65","name":"Malaquite","lastEditedDt":"3/2/2020 11:09:42","status":"2","description":"Site ID:  2991 <br>Landowner ID:  NA Last edited on:  3/2/2020 11:09:42"}}]}