{"type":"FeatureCollection","features":[{"type":"Feature","geometry":{"type":"Point","coordinates":[-80.08,43.5]},"properties":{"ID":"2227","projectID":"92","name":"Cryderman Tower","lastEditedDt":"9/6/2018 15:25:51","status":"2","description":"Site ID:  2227 <br>Landowner ID:  NA Last edited on:  9/6/2018 15:25:51"}},{"type":"Feature","geometry":{"type":"Point","coordinates":[-80.15,43.76]},"properties":{"ID":"2228","projectID":"92","name":"Hindmarsh Tower","lastEditedDt":"9/6/2018 15:25:51","status":"2","description":"Site ID:  2228 <br>Landowner ID:  NA Last edited on:  9/6/2018 15:25:51"}},{"type":"Feature","geometry":{"type":"Point","coordinates":[-80.09,43.51]},"properties":{"ID":"2229","projectID":"92","name":"Kitching Farm Tower","lastEditedDt":"9/6/2018 15:25:51","status":"1","description":"Site ID:  2229 <br>Landowner ID:  NA Last edited on:  9/6/2018 15:25:51"}},{"type":"Feature","geometry":{"type":"Point","coordinates":[-80.19,43.6]},"properties":{"ID":"2230","projectID":"92","name":"Osborne Tower","lastEditedDt":"9/6/2018 15:25:51","status":"1","description":"Site ID:  2230 <br>Landowner ID:  NA Last edited on:  9/6/2018 15:25:51"}},{"type":"Feature","geometry":{"type":"Point","coordinates":[-80.26,43.83]},"properties":{"ID":"2231","projectID":"92","name":"Quarry Tower","lastEditedDt":"9/6/2018 15:25:51","status":"1","description":"Site ID:  2231 <br>Landowner ID:  NA Last edited on:  9/6/2018 15:25:51"}},{"type":"Feature","geometry":{"type":"Point","coordinates":[-80.33,43.71]},"properties":{"ID":"2232","projectID":"92","name":"Sunset Farm","lastEditedDt":"9/6/2018 15:25:51","status":"2","description":"Site ID:  2232 <br>Landowner ID:  NA Last edited on:  9/6/2018 15:25:51"}},{"type":"Feature","geometry":{"type":"Point","coordinates":[-80.04,43.69]},"properties":{"ID":"2234","projectID":"92","name":"VanBerlo Tower","lastEditedDt":"9/6/2018 15:25:51","status":"1","description":"Site ID:  2234 <br>Landowner ID:  NA Last edited on:  9/6/2018 15:25:51"}},{"type":"Feature","geometry":{"type":"Point","coordinates":[-80.14,43.74]},"properties":{"ID":"2600","projectID":"92","name":"Olivers","lastEditedDt":"9/6/2018 15:33:24","status":"1","description":"Site ID:  2600 <br>Landowner ID:  NA Last edited on:  9/6/2018 15:33:24"}},{"type":"Feature","geometry":{"type":"Point","coordinates":[-80.19,43.58]},"properties":{"ID":"2601","projectID":"92","name":"McFarlands","lastEditedDt":"9/6/2018 15:38:00","status":"1","description":"Site ID:  2601 <br>Landowner ID:  NA Last edited on:  9/6/2018 15:38:00"}},{"type":"Feature","geometry":{"type":"Point","coordinates":[-80.51,43.81]},"properties":{"ID":"2792","projectID":"92","name":"Jones Baseline","lastEditedDt":"7/9/2019 8:41:52","status":"1","description":"Site ID:  2792 <br>Landowner ID:  NA Last edited on:  7/9/2019 8:41:52"}},{"type":"Feature","geometry":{"type":"Point","coordinates":[-80.38,43.82]},"properties":{"ID":"2793","projectID":"92","name":"Sixth Line","lastEditedDt":"7/9/2019 8:43:54","status":"1","description":"Site ID:  2793 <br>Landowner ID:  NA Last edited on:  7/9/2019 8:43:54"}},{"type":"Feature","geometry":{"type":"Point","coordinates":[-80.25,43.6]},"properties":{"ID":"2795","projectID":"92","name":"TRES Field North","lastEditedDt":"7/9/2019 15:11:57","status":"1","description":"Site ID:  2795 <br>Landowner ID:  NA Last edited on:  7/9/2019 15:11:57"}},{"type":"Feature","geometry":{"type":"Point","coordinates":[-79.53,43.63]},"properties":{"ID":"2796","projectID":"92","name":"Test","lastEditedDt":"7/9/2019 17:56:39","status":"1","description":"Site ID:  2796 <br>Landowner ID:  NA Last edited on:  7/9/2019 17:56:39"}},{"type":"Feature","geometry":{"type":"Point","coordinates":[-80.14,43.75]},"properties":{"ID":"2872","projectID":"92","name":"Hindmarsh Small Barn","lastEditedDt":"8/19/2019 9:01:38","status":"1","description":"Site ID:  2872 <br>Landowner ID:  NA Last edited on:  8/19/2019 9:01:38"}},{"type":"Feature","geometry":{"type":"Point","coordinates":[-80.15,43.75]},"properties":{"ID":"2873","projectID":"92","name":"Hindmarsh Large Barn","lastEditedDt":"8/19/2019 9:03:52","status":"1","description":"Site ID:  2873 <br>Landowner ID:  NA Last edited on:  8/19/2019 9:03:52"}}]}