{"type":"FeatureCollection","features":[{"type":"Feature","geometry":{"type":"Point","coordinates":[-75.0867,44.9367]},"properties":{"name":"Crysler Park Marina","color":"terminated"}},{"type":"Feature","geometry":{"type":"Point","coordinates":[-75.0867,44.9367]},"properties":{"name":"Crysler Park Marina","color":"active"}},{"type":"Feature","geometry":{"type":"Point","coordinates":[-79.8309,43.0997]},"properties":{"name":"Binbrook_Conservation_Area","color":"terminated"}},{"type":"Feature","geometry":{"type":"Point","coordinates":[-79.8309,43.0997]},"properties":{"name":"Binbrook_Conservation_Area","color":"terminated"}},{"type":"Feature","geometry":{"type":"Point","coordinates":[-79.8309,43.0997]},"properties":{"name":"Binbrook_Conservation_Area","color":"terminated"}},{"type":"Feature","geometry":{"type":"Point","coordinates":[-79.8309,43.0997]},"properties":{"name":"Binbrook_Conservation_Area","color":"terminated"}},{"type":"Feature","geometry":{"type":"Point","coordinates":[-79.8309,43.0997]},"properties":{"name":"Binbrook_Conservation_Area","color":"terminated"}},{"type":"Feature","geometry":{"type":"Point","coordinates":[-81.8249,43.2497]},"properties":{"name":"Pinery_Provincial_Park","color":"terminated"}},{"type":"Feature","geometry":{"type":"Point","coordinates":[-81.8249,43.2497]},"properties":{"name":"Pinery_Provincial_Park","color":"terminated"}},{"type":"Feature","geometry":{"type":"Point","coordinates":[-81.8249,43.2497]},"properties":{"name":"Pinery_Provincial_Park","color":"terminated"}},{"type":"Feature","geometry":{"type":"Point","coordinates":[-81.8249,43.2497]},"properties":{"name":"Pinery_Provincial_Park","color":"terminated"}},{"type":"Feature","geometry":{"type":"Point","coordinates":[-81.8249,43.2497]},"properties":{"name":"Pinery_Provincial_Park","color":"terminated"}},{"type":"Feature","geometry":{"type":"Point","coordinates":[-81.8249,43.2497]},"properties":{"name":"Pinery_Provincial_Park","color":"active"}},{"type":"Feature","geometry":{"type":"Point","coordinates":[-81.2986,45.2461]},"properties":{"name":"Cabot_Head","color":"active"}},{"type":"Feature","geometry":{"type":"Point","coordinates":[-81.2986,45.2461]},"properties":{"name":"Cabot_Head","color":"terminated"}},{"type":"Feature","geometry":{"type":"Point","coordinates":[-81.2986,45.2461]},"properties":{"name":"Cabot_Head","color":"terminated"}},{"type":"Feature","geometry":{"type":"Point","coordinates":[-81.2986,45.2461]},"properties":{"name":"Cabot_Head","color":"terminated"}},{"type":"Feature","geometry":{"type":"Point","coordinates":[-81.2986,45.2461]},"properties":{"name":"Cabot_Head","color":"terminated"}},{"type":"Feature","geometry":{"type":"Point","coordinates":[-80.3439,43.1345]},"properties":{"name":"Brantford_Airport","color":"terminated"}},{"type":"Feature","geometry":{"type":"Point","coordinates":[-80.3439,43.1345]},"properties":{"name":"Brantford_Airport","color":"terminated"}},{"type":"Feature","geometry":{"type":"Point","coordinates":[-80.3439,43.1345]},"properties":{"name":"Brantford_Airport","color":"terminated"}},{"type":"Feature","geometry":{"type":"Point","coordinates":[-80.3439,43.1345]},"properties":{"name":"Brantford_Airport","color":"terminated"}},{"type":"Feature","geometry":{"type":"Point","coordinates":[-78.9081,43.8487]},"properties":{"name":"Gerdau","color":"active"}},{"type":"Feature","geometry":{"type":"Point","coordinates":[-80.464,43.9474]},"properties":{"name":"Luther_Marsh","color":"active"}},{"type":"Feature","geometry":{"type":"Point","coordinates":[-80.464,43.9474]},"properties":{"name":"Luther_Marsh","color":"terminated"}},{"type":"Feature","geometry":{"type":"Point","coordinates":[-80.464,43.9474]},"properties":{"name":"Luther_Marsh","color":"terminated"}},{"type":"Feature","geometry":{"type":"Point","coordinates":[-80.464,43.9474]},"properties":{"name":"Luther_Marsh","color":"terminated"}},{"type":"Feature","geometry":{"type":"Point","coordinates":[-80.464,43.9474]},"properties":{"name":"Luther_Marsh","color":"terminated"}},{"type":"Feature","geometry":{"type":"Point","coordinates":[-82.36,42.6056]},"properties":{"name":"Peers","color":"terminated"}},{"type":"Feature","geometry":{"type":"Point","coordinates":[-82.36,42.6056]},"properties":{"name":"Peers","color":"terminated"}},{"type":"Feature","geometry":{"type":"Point","coordinates":[-82.36,42.6056]},"properties":{"name":"Peers","color":"terminated"}},{"type":"Feature","geometry":{"type":"Point","coordinates":[-82.36,42.6056]},"properties":{"name":"Peers","color":"terminated"}},{"type":"Feature","geometry":{"type":"Point","coordinates":[-82.36,42.6056]},"properties":{"name":"Peers","color":"terminated"}},{"type":"Feature","geometry":{"type":"Point","coordinates":[-82.36,42.6056]},"properties":{"name":"Peers","color":"terminated"}},{"type":"Feature","geometry":{"type":"Point","coordinates":[-80.2239,44.2884]},"properties":{"name":"New_Farm","color":"active"}},{"type":"Feature","geometry":{"type":"Point","coordinates":[-80.2239,44.2884]},"properties":{"name":"New_Farm","color":"terminated"}},{"type":"Feature","geometry":{"type":"Point","coordinates":[-80.2239,44.2884]},"properties":{"name":"New_Farm","color":"terminated"}},{"type":"Feature","geometry":{"type":"Point","coordinates":[-80.2239,44.2884]},"properties":{"name":"New_Farm","color":"terminated"}},{"type":"Feature","geometry":{"type":"Point","coordinates":[-80.2239,44.2884]},"properties":{"name":"New_Farm","color":"terminated"}},{"type":"Feature","geometry":{"type":"Point","coordinates":[-80.6549,43.2632]},"properties":{"name":"Bright","color":"terminated"}},{"type":"Feature","geometry":{"type":"Point","coordinates":[-80.6549,43.2632]},"properties":{"name":"Bright","color":"terminated"}},{"type":"Feature","geometry":{"type":"Point","coordinates":[-80.6549,43.2632]},"properties":{"name":"Bright","color":"terminated"}},{"type":"Feature","geometry":{"type":"Point","coordinates":[-80.6549,43.2632]},"properties":{"name":"Bright","color":"terminated"}},{"type":"Feature","geometry":{"type":"Point","coordinates":[-80.6549,43.2632]},"properties":{"name":"Bright","color":"active"}},{"type":"Feature","geometry":{"type":"Point","coordinates":[-82.1729,42.9156]},"properties":{"name":"Marthaville_CA","color":"terminated"}},{"type":"Feature","geometry":{"type":"Point","coordinates":[-82.1729,42.9156]},"properties":{"name":"Marthaville_CA","color":"active"}},{"type":"Feature","geometry":{"type":"Point","coordinates":[-82.1729,42.9156]},"properties":{"name":"Marthaville_CA","color":"terminated"}},{"type":"Feature","geometry":{"type":"Point","coordinates":[-82.1729,42.9156]},"properties":{"name":"Marthaville_CA","color":"terminated"}},{"type":"Feature","geometry":{"type":"Point","coordinates":[-82.1729,42.9156]},"properties":{"name":"Marthaville_CA","color":"terminated"}},{"type":"Feature","geometry":{"type":"Point","coordinates":[-82.6398,41.7965]},"properties":{"name":"Pelee_Island","color":"terminated"}},{"type":"Feature","geometry":{"type":"Point","coordinates":[-82.6398,41.7965]},"properties":{"name":"Pelee_Island","color":"terminated"}},{"type":"Feature","geometry":{"type":"Point","coordinates":[-82.6398,41.7965]},"properties":{"name":"Pelee_Island","color":"terminated"}},{"type":"Feature","geometry":{"type":"Point","coordinates":[-81.683,44.0947]},"properties":{"name":"Pine River Cheese","color":"terminated"}},{"type":"Feature","geometry":{"type":"Point","coordinates":[-81.683,44.0947]},"properties":{"name":"Pine River Cheese","color":"terminated"}},{"type":"Feature","geometry":{"type":"Point","coordinates":[-81.683,44.0947]},"properties":{"name":"Pine River Cheese","color":"active"}},{"type":"Feature","geometry":{"type":"Point","coordinates":[-81.683,44.0947]},"properties":{"name":"Pine River Cheese","color":"terminated"}},{"type":"Feature","geometry":{"type":"Point","coordinates":[-80.0507,42.5487]},"properties":{"name":"Long_Point_Tip","color":"terminated"}},{"type":"Feature","geometry":{"type":"Point","coordinates":[-80.0507,42.5487]},"properties":{"name":"Long_Point_Tip","color":"terminated"}},{"type":"Feature","geometry":{"type":"Point","coordinates":[-80.0507,42.5487]},"properties":{"name":"Long_Point_Tip","color":"terminated"}},{"type":"Feature","geometry":{"type":"Point","coordinates":[-80.0507,42.5487]},"properties":{"name":"Long_Point_Tip","color":"active"}},{"type":"Feature","geometry":{"type":"Point","coordinates":[-80.0507,42.5487]},"properties":{"name":"Long_Point_Tip","color":"terminated"}},{"type":"Feature","geometry":{"type":"Point","coordinates":[-80.005,43.8259]},"properties":{"name":"Forks_of_the_Credit","color":"terminated"}},{"type":"Feature","geometry":{"type":"Point","coordinates":[-80.005,43.8259]},"properties":{"name":"Forks_of_the_Credit","color":"terminated"}},{"type":"Feature","geometry":{"type":"Point","coordinates":[-80.005,43.8259]},"properties":{"name":"Forks_of_the_Credit","color":"terminated"}},{"type":"Feature","geometry":{"type":"Point","coordinates":[-80.005,43.8259]},"properties":{"name":"Forks_of_the_Credit","color":"active"}},{"type":"Feature","geometry":{"type":"Point","coordinates":[-80.005,43.8259]},"properties":{"name":"Forks_of_the_Credit","color":"terminated"}},{"type":"Feature","geometry":{"type":"Point","coordinates":[-80.7218,42.6227]},"properties":{"name":"Bolin_Port_Burwell","color":"terminated"}},{"type":"Feature","geometry":{"type":"Point","coordinates":[-80.7218,42.6227]},"properties":{"name":"Bolin_Port_Burwell","color":"terminated"}},{"type":"Feature","geometry":{"type":"Point","coordinates":[-80.7218,42.6227]},"properties":{"name":"Bolin_Port_Burwell","color":"terminated"}},{"type":"Feature","geometry":{"type":"Point","coordinates":[-80.7218,42.6227]},"properties":{"name":"Bolin_Port_Burwell","color":"terminated"}},{"type":"Feature","geometry":{"type":"Point","coordinates":[-79.5592,42.8584]},"properties":{"name":"Mosaic Port Maitland","color":"terminated"}},{"type":"Feature","geometry":{"type":"Point","coordinates":[-79.5537,42.8542]},"properties":{"name":"Rock_Point_Provincial_Park","color":"terminated"}},{"type":"Feature","geometry":{"type":"Point","coordinates":[-79.5592,42.8584]},"properties":{"name":"Mosaic Port Maitland","color":"terminated"}},{"type":"Feature","geometry":{"type":"Point","coordinates":[-79.5592,42.8584]},"properties":{"name":"Mosaic Port Maitland","color":"active"}},{"type":"Feature","geometry":{"type":"Point","coordinates":[-80.7847,43.9597]},"properties":{"name":"Mount Forest","color":"active"}},{"type":"Feature","geometry":{"type":"Point","coordinates":[-80.7847,43.9597]},"properties":{"name":"Mount Forest","color":"terminated"}},{"type":"Feature","geometry":{"type":"Point","coordinates":[-80.7847,43.9597]},"properties":{"name":"Mount Forest","color":"terminated"}},{"type":"Feature","geometry":{"type":"Point","coordinates":[-80.7847,43.9597]},"properties":{"name":"Mount Forest","color":"terminated"}},{"type":"Feature","geometry":{"type":"Point","coordinates":[-81.2069,44.0555]},"properties":{"name":"Saugeen_Conservation_Authority_Formosa","color":"terminated"}},{"type":"Feature","geometry":{"type":"Point","coordinates":[-81.2069,44.0555]},"properties":{"name":"Saugeen_Conservation_Authority_Formosa","color":"terminated"}},{"type":"Feature","geometry":{"type":"Point","coordinates":[-81.2069,44.0555]},"properties":{"name":"Saugeen_Conservation_Authority_Formosa","color":"terminated"}},{"type":"Feature","geometry":{"type":"Point","coordinates":[-80.6478,42.6945]},"properties":{"name":"Arthur_Langford_Reserve","color":"terminated"}},{"type":"Feature","geometry":{"type":"Point","coordinates":[-81.4985,43.3561]},"properties":{"name":"Exeter Sewage Lagoons","color":"terminated"}},{"type":"Feature","geometry":{"type":"Point","coordinates":[-81.4985,43.3561]},"properties":{"name":"Exeter Sewage Lagoons","color":"terminated"}},{"type":"Feature","geometry":{"type":"Point","coordinates":[-81.4985,43.3561]},"properties":{"name":"Exeter Sewage Lagoons","color":"terminated"}},{"type":"Feature","geometry":{"type":"Point","coordinates":[-81.7103,43.8041]},"properties":{"name":"Point_Farms_Provincial_Park","color":"terminated"}},{"type":"Feature","geometry":{"type":"Point","coordinates":[-81.7103,43.8041]},"properties":{"name":"Point_Farms_Provincial_Park","color":"terminated"}},{"type":"Feature","geometry":{"type":"Point","coordinates":[-81.7103,43.8041]},"properties":{"name":"Point_Farms_Provincial_Park","color":"terminated"}},{"type":"Feature","geometry":{"type":"Point","coordinates":[-81.7103,43.8041]},"properties":{"name":"Point_Farms_Provincial_Park","color":"terminated"}},{"type":"Feature","geometry":{"type":"Point","coordinates":[-79.0553,43.8139]},"properties":{"name":"Pickering OPG","color":"active"}},{"type":"Feature","geometry":{"type":"Point","coordinates":[-83.067,42.2766]},"properties":{"name":"Malden Park","color":"terminated"}},{"type":"Feature","geometry":{"type":"Point","coordinates":[-83.067,42.2766]},"properties":{"name":"Malden Park","color":"terminated"}},{"type":"Feature","geometry":{"type":"Point","coordinates":[-83.067,42.2766]},"properties":{"name":"Malden Park","color":"terminated"}},{"type":"Feature","geometry":{"type":"Point","coordinates":[-83.067,42.2766]},"properties":{"name":"Malden Park","color":"terminated"}},{"type":"Feature","geometry":{"type":"Point","coordinates":[-83.067,42.2766]},"properties":{"name":"Malden Park","color":"terminated"}},{"type":"Feature","geometry":{"type":"Point","coordinates":[-80.3525,43.3768]},"properties":{"name":"Cambridge_RARE","color":"active"}},{"type":"Feature","geometry":{"type":"Point","coordinates":[-77.7452,44.0128]},"properties":{"name":"Brighton","color":"active"}},{"type":"Feature","geometry":{"type":"Point","coordinates":[-77.7405,44.0078]},"properties":{"name":"Presqu'ile Provincial Park","color":"terminated"}},{"type":"Feature","geometry":{"type":"Point","coordinates":[-79.9863,43.3306]},"properties":{"name":"Millgrove","color":"terminated"}},{"type":"Feature","geometry":{"type":"Point","coordinates":[-79.9863,43.3306]},"properties":{"name":"Millgrove","color":"terminated"}},{"type":"Feature","geometry":{"type":"Point","coordinates":[-79.986,43.3311]},"properties":{"name":"Millgrove","color":"terminated"}},{"type":"Feature","geometry":{"type":"Point","coordinates":[-80.0137,43.3136]},"properties":{"name":"Flamborough_Quarry","color":"terminated"}},{"type":"Feature","geometry":{"type":"Point","coordinates":[-80.0137,43.3136]},"properties":{"name":"Flamborough_Quarry","color":"active"}},{"type":"Feature","geometry":{"type":"Point","coordinates":[-80.6122,44.2082]},"properties":{"name":"Priceville","color":"active"}},{"type":"Feature","geometry":{"type":"Point","coordinates":[-80.6122,44.2082]},"properties":{"name":"Priceville","color":"terminated"}},{"type":"Feature","geometry":{"type":"Point","coordinates":[-80.6122,44.2082]},"properties":{"name":"Priceville","color":"terminated"}},{"type":"Feature","geometry":{"type":"Point","coordinates":[-80.6481,44.2788]},"properties":{"name":"Hubbert","color":"terminated"}},{"type":"Feature","geometry":{"type":"Point","coordinates":[-80.6481,44.2788]},"properties":{"name":"Hubbert","color":"terminated"}},{"type":"Feature","geometry":{"type":"Point","coordinates":[-81.2345,44.7407]},"properties":{"name":"Bluewater","color":"terminated"}},{"type":"Feature","geometry":{"type":"Point","coordinates":[-81.2345,44.7407]},"properties":{"name":"Bluewater","color":"terminated"}},{"type":"Feature","geometry":{"type":"Point","coordinates":[-81.2345,44.7407]},"properties":{"name":"Bluewater","color":"terminated"}},{"type":"Feature","geometry":{"type":"Point","coordinates":[-81.2345,44.7407]},"properties":{"name":"Bluewater","color":"active"}},{"type":"Feature","geometry":{"type":"Point","coordinates":[-81.1846,42.9302]},"properties":{"name":"CompuDataTest","color":"terminated"}},{"type":"Feature","geometry":{"type":"Point","coordinates":[-79.2672,43.1021]},"properties":{"name":"Short_Hills_Provincial_Park","color":"terminated"}},{"type":"Feature","geometry":{"type":"Point","coordinates":[-79.2672,43.1021]},"properties":{"name":"Short_Hills_Provincial_Park","color":"active"}},{"type":"Feature","geometry":{"type":"Point","coordinates":[-79.2672,43.1021]},"properties":{"name":"Short_Hills_Provincial_Park","color":"terminated"}},{"type":"Feature","geometry":{"type":"Point","coordinates":[-79.2672,43.1021]},"properties":{"name":"Short_Hills_Provincial_Park","color":"terminated"}},{"type":"Feature","geometry":{"type":"Point","coordinates":[-80.9472,44.5049]},"properties":{"name":"Sydenham","color":"terminated"}},{"type":"Feature","geometry":{"type":"Point","coordinates":[-80.9472,44.5049]},"properties":{"name":"Sydenham","color":"terminated"}},{"type":"Feature","geometry":{"type":"Point","coordinates":[-80.9472,44.5049]},"properties":{"name":"Sydenham","color":"terminated"}},{"type":"Feature","geometry":{"type":"Point","coordinates":[-81.2069,44.0555]},"properties":{"name":"Formosa2","color":"terminated"}},{"type":"Feature","geometry":{"type":"Point","coordinates":[-81.3845,42.9538]},"properties":{"name":"Komoka_provincial_park","color":"terminated"}},{"type":"Feature","geometry":{"type":"Point","coordinates":[-81.1774,44.0535]},"properties":{"name":"Formosa","color":"terminated"}},{"type":"Feature","geometry":{"type":"Point","coordinates":[-80.0943,44.0461]},"properties":{"name":"Monocliffs","color":"terminated"}},{"type":"Feature","geometry":{"type":"Point","coordinates":[-80.0943,44.0461]},"properties":{"name":"Monocliffs","color":"terminated"}},{"type":"Feature","geometry":{"type":"Point","coordinates":[-80.0943,44.0461]},"properties":{"name":"Monocliffs","color":"terminated"}},{"type":"Feature","geometry":{"type":"Point","coordinates":[-80.0943,44.0461]},"properties":{"name":"Monocliffs","color":"active"}},{"type":"Feature","geometry":{"type":"Point","coordinates":[-80.0943,44.0461]},"properties":{"name":"Monocliffs","color":"terminated"}},{"type":"Feature","geometry":{"type":"Point","coordinates":[-81.2584,44.964]},"properties":{"name":"Lions_Head","color":"terminated"}},{"type":"Feature","geometry":{"type":"Point","coordinates":[-81.2584,44.964]},"properties":{"name":"Lions_Head","color":"active"}},{"type":"Feature","geometry":{"type":"Point","coordinates":[-81.2584,44.964]},"properties":{"name":"Lions_Head","color":"terminated"}},{"type":"Feature","geometry":{"type":"Point","coordinates":[-81.2584,44.964]},"properties":{"name":"Lions_Head","color":"terminated"}},{"type":"Feature","geometry":{"type":"Point","coordinates":[-81.2584,44.964]},"properties":{"name":"Lions_Head","color":"terminated"}},{"type":"Feature","geometry":{"type":"Point","coordinates":[-81.6115,45.2511]},"properties":{"name":"Bruce_Peninsula_National_Park","color":"terminated"}},{"type":"Feature","geometry":{"type":"Point","coordinates":[-81.6115,45.2511]},"properties":{"name":"Bruce_Peninsula_National_Park","color":"terminated"}},{"type":"Feature","geometry":{"type":"Point","coordinates":[-81.6115,45.2511]},"properties":{"name":"Bruce_Peninsula_National_Park","color":"terminated"}},{"type":"Feature","geometry":{"type":"Point","coordinates":[-81.6562,45.2574]},"properties":{"name":"Bruce_Peninsula_National_Park","color":"active"}},{"type":"Feature","geometry":{"type":"Point","coordinates":[-81.0789,43.2567]},"properties":{"name":"Wildwood_Conservation_Area","color":"terminated"}},{"type":"Feature","geometry":{"type":"Point","coordinates":[-81.0789,43.2567]},"properties":{"name":"Wildwood_Conservation_Area","color":"terminated"}},{"type":"Feature","geometry":{"type":"Point","coordinates":[-81.0789,43.2567]},"properties":{"name":"Wildwood_Conservation_Area","color":"terminated"}},{"type":"Feature","geometry":{"type":"Point","coordinates":[-81.0789,43.2567]},"properties":{"name":"Wildwood_Conservation_Area","color":"terminated"}},{"type":"Feature","geometry":{"type":"Point","coordinates":[-82.3998,42.3787]},"properties":{"name":"St.Clair NWA","color":"terminated"}},{"type":"Feature","geometry":{"type":"Point","coordinates":[-82.3998,42.3787]},"properties":{"name":"St.Clair NWA","color":"terminated"}},{"type":"Feature","geometry":{"type":"Point","coordinates":[-82.3998,42.3787]},"properties":{"name":"St.Clair NWA","color":"terminated"}},{"type":"Feature","geometry":{"type":"Point","coordinates":[-82.3998,42.3787]},"properties":{"name":"St.Clair NWA","color":"active"}},{"type":"Feature","geometry":{"type":"Point","coordinates":[-82.3998,42.3787]},"properties":{"name":"St.Clair NWA","color":"terminated"}},{"type":"Feature","geometry":{"type":"Point","coordinates":[-77.2747,43.8947]},"properties":{"name":"Sandbanks Provincial Park","color":"active"}},{"type":"Feature","geometry":{"type":"Point","coordinates":[-77.2747,43.8947]},"properties":{"name":"Sandbanks Provincial Park","color":"terminated"}},{"type":"Feature","geometry":{"type":"Point","coordinates":[-77.2747,43.8947]},"properties":{"name":"Sandbanks Provincial Park","color":"terminated"}},{"type":"Feature","geometry":{"type":"Point","coordinates":[-80.2701,43.605]},"properties":{"name":"Guelph_Lake_CA","color":"terminated"}},{"type":"Feature","geometry":{"type":"Point","coordinates":[-80.2701,43.605]},"properties":{"name":"Guelph_Lake_CA","color":"terminated"}},{"type":"Feature","geometry":{"type":"Point","coordinates":[-80.2701,43.605]},"properties":{"name":"Guelph_Lake_CA","color":"terminated"}},{"type":"Feature","geometry":{"type":"Point","coordinates":[-80.2701,43.605]},"properties":{"name":"Guelph_Lake_CA","color":"terminated"}},{"type":"Feature","geometry":{"type":"Point","coordinates":[-80.2701,43.605]},"properties":{"name":"Guelph_Lake_CA","color":"terminated"}},{"type":"Feature","geometry":{"type":"Point","coordinates":[-80.2701,43.605]},"properties":{"name":"Guelph_Lake_CA","color":"terminated"}},{"type":"Feature","geometry":{"type":"Point","coordinates":[-81.8411,42.2824]},"properties":{"name":"Rondeau_Provincial_Park","color":"terminated"}},{"type":"Feature","geometry":{"type":"Point","coordinates":[-81.8411,42.2824]},"properties":{"name":"Rondeau_Provincial_Park","color":"active"}},{"type":"Feature","geometry":{"type":"Point","coordinates":[-81.8411,42.2824]},"properties":{"name":"Rondeau_Provincial_Park","color":"terminated"}},{"type":"Feature","geometry":{"type":"Point","coordinates":[-81.8411,42.2824]},"properties":{"name":"Rondeau_Provincial_Park","color":"terminated"}},{"type":"Feature","geometry":{"type":"Point","coordinates":[-81.8411,42.2824]},"properties":{"name":"Rondeau_Provincial_Park","color":"terminated"}},{"type":"Feature","geometry":{"type":"Point","coordinates":[-81.8411,42.2824]},"properties":{"name":"Rondeau_Provincial_Park","color":"terminated"}},{"type":"Feature","geometry":{"type":"Point","coordinates":[-83.0306,42.0377]},"properties":{"name":"Holiday_Beach_CA","color":"terminated"}},{"type":"Feature","geometry":{"type":"Point","coordinates":[-83.0306,42.0377]},"properties":{"name":"Holiday_Beach_CA","color":"terminated"}},{"type":"Feature","geometry":{"type":"Point","coordinates":[-83.0306,42.0377]},"properties":{"name":"Holiday_Beach_CA","color":"terminated"}},{"type":"Feature","geometry":{"type":"Point","coordinates":[-83.0306,42.0377]},"properties":{"name":"Holiday_Beach_CA","color":"terminated"}},{"type":"Feature","geometry":{"type":"Point","coordinates":[-83.0306,42.0377]},"properties":{"name":"Holiday_Beach_CA","color":"terminated"}},{"type":"Feature","geometry":{"type":"Point","coordinates":[-83.0306,42.0377]},"properties":{"name":"Holiday_Beach_CA","color":"terminated"}},{"type":"Feature","geometry":{"type":"Point","coordinates":[-76.6069,44.2176]},"properties":{"name":"Lemoine Point C.A.","color":"active"}},{"type":"Feature","geometry":{"type":"Point","coordinates":[-76.6069,44.2176]},"properties":{"name":"Lemoine Point C.A.","color":"terminated"}},{"type":"Feature","geometry":{"type":"Point","coordinates":[-76.6069,44.2176]},"properties":{"name":"Lemoine Point C.A.","color":"terminated"}},{"type":"Feature","geometry":{"type":"Point","coordinates":[-81.3845,42.9538]},"properties":{"name":"Komoka_Provincial_Park","color":"terminated"}},{"type":"Feature","geometry":{"type":"Point","coordinates":[-81.3845,42.9538]},"properties":{"name":"Komoka_Provincial_Park","color":"terminated"}},{"type":"Feature","geometry":{"type":"Point","coordinates":[-81.3845,42.9538]},"properties":{"name":"Komoka_Provincial_Park","color":"terminated"}},{"type":"Feature","geometry":{"type":"Point","coordinates":[-81.3845,42.9538]},"properties":{"name":"Komoka_Provincial_Park","color":"terminated"}},{"type":"Feature","geometry":{"type":"Point","coordinates":[-80.2884,43.1719]},"properties":{"name":"Russel Reid PS","color":"active"}},{"type":"Feature","geometry":{"type":"Point","coordinates":[-80.7268,43.6659]},"properties":{"name":"Conestogo","color":"active"}},{"type":"Feature","geometry":{"type":"Point","coordinates":[-80.7479,43.0585]},"properties":{"name":"Curries","color":"terminated"}},{"type":"Feature","geometry":{"type":"Point","coordinates":[-80.7479,43.0585]},"properties":{"name":"Curries","color":"terminated"}},{"type":"Feature","geometry":{"type":"Point","coordinates":[-80.7479,43.0585]},"properties":{"name":"Curries","color":"terminated"}},{"type":"Feature","geometry":{"type":"Point","coordinates":[-80.7479,43.0585]},"properties":{"name":"Curries","color":"terminated"}},{"type":"Feature","geometry":{"type":"Point","coordinates":[-80.3108,42.9155]},"properties":{"name":"Waterford_Quarry","color":"terminated"}},{"type":"Feature","geometry":{"type":"Point","coordinates":[-80.3107,42.9155]},"properties":{"name":"Waterford_Quarry","color":"active"}},{"type":"Feature","geometry":{"type":"Point","coordinates":[-81.4696,43.6489]},"properties":{"name":"Hullet_Provincial_Wildlife_Area","color":"terminated"}},{"type":"Feature","geometry":{"type":"Point","coordinates":[-81.4696,43.6489]},"properties":{"name":"Hullet_Provincial_Wildlife_Area","color":"terminated"}},{"type":"Feature","geometry":{"type":"Point","coordinates":[-81.4697,43.6489]},"properties":{"name":"Hullet_Provincial_Wildlife_Area","color":"terminated"}},{"type":"Feature","geometry":{"type":"Point","coordinates":[-80.3107,42.9155]},"properties":{"name":"Waterford_Quarry","color":"terminated"}},{"type":"Feature","geometry":{"type":"Point","coordinates":[-82.5144,42.0427]},"properties":{"name":"Hillman_Marsh","color":"terminated"}},{"type":"Feature","geometry":{"type":"Point","coordinates":[-82.5144,42.0427]},"properties":{"name":"Hillman_Marsh","color":"terminated"}},{"type":"Feature","geometry":{"type":"Point","coordinates":[-82.5144,42.0427]},"properties":{"name":"Hillman_Marsh","color":"terminated"}},{"type":"Feature","geometry":{"type":"Point","coordinates":[-82.5144,42.0427]},"properties":{"name":"Hillman_Marsh","color":"terminated"}},{"type":"Feature","geometry":{"type":"Point","coordinates":[-82.5144,42.0427]},"properties":{"name":"Hillman_Marsh","color":"terminated"}},{"type":"Feature","geometry":{"type":"Point","coordinates":[-82.5144,42.0427]},"properties":{"name":"Hillman_Marsh","color":"terminated"}},{"type":"Feature","geometry":{"type":"Point","coordinates":[-82.5144,42.0427]},"properties":{"name":"Hillman_Marsh","color":"terminated"}},{"type":"Feature","geometry":{"type":"Point","coordinates":[-80.4582,42.6153]},"properties":{"name":"BSC_Test","color":"terminated"}},{"type":"Feature","geometry":{"type":"Point","coordinates":[-79.8761,42.9775]},"properties":{"name":"Ruthven","color":"active"}},{"type":"Feature","geometry":{"type":"Point","coordinates":[-81.1558,43.661]},"properties":{"name":"Rathwell","color":"terminated"}},{"type":"Feature","geometry":{"type":"Point","coordinates":[-81.1558,43.661]},"properties":{"name":"Rathwell","color":"active"}},{"type":"Feature","geometry":{"type":"Point","coordinates":[-81.1558,43.661]},"properties":{"name":"Rathwell","color":"terminated"}},{"type":"Feature","geometry":{"type":"Point","coordinates":[-81.1558,43.661]},"properties":{"name":"Rathwell","color":"terminated"}},{"type":"Feature","geometry":{"type":"Point","coordinates":[-81.1558,43.661]},"properties":{"name":"Rathwell","color":"terminated"}},{"type":"Feature","geometry":{"type":"Point","coordinates":[-81.4985,43.3561]},"properties":{"name":"Exeter_Sewage_Lagoons","color":"terminated"}},{"type":"Feature","geometry":{"type":"Point","coordinates":[-81.4985,43.3561]},"properties":{"name":"Exeter_Sewage_Lagoons","color":"terminated"}},{"type":"Feature","geometry":{"type":"Point","coordinates":[-81.4985,43.3561]},"properties":{"name":"Exeter_Sewage_Lagoons","color":"terminated"}},{"type":"Feature","geometry":{"type":"Point","coordinates":[-81.4985,43.3561]},"properties":{"name":"Exeter_Sewage_Lagoons","color":"terminated"}},{"type":"Feature","geometry":{"type":"Point","coordinates":[-80.6478,42.6945]},"properties":{"name":"Arthur_Langford_Reserve","color":"terminated"}},{"type":"Feature","geometry":{"type":"Point","coordinates":[-83.067,42.2766]},"properties":{"name":"Malden Park","color":"terminated"}},{"type":"Feature","geometry":{"type":"Point","coordinates":[-81.4484,44.4172]},"properties":{"name":"MacGregor_Point_Provincial_Park","color":"terminated"}},{"type":"Feature","geometry":{"type":"Point","coordinates":[-81.4484,44.4172]},"properties":{"name":"MacGregor_Point_Provincial_Park","color":"terminated"}},{"type":"Feature","geometry":{"type":"Point","coordinates":[-81.4484,44.4172]},"properties":{"name":"MacGregor_Point_Provincial_Park","color":"terminated"}},{"type":"Feature","geometry":{"type":"Point","coordinates":[-81.4484,44.4172]},"properties":{"name":"MacGregor_Point_Provincial_Park","color":"terminated"}},{"type":"Feature","geometry":{"type":"Point","coordinates":[-81.4484,44.4172]},"properties":{"name":"MacGregor_Point_Provincial_Park","color":"terminated"}},{"type":"Feature","geometry":{"type":"Point","coordinates":[-80.2708,42.7546]},"properties":{"name":"Werden","color":"terminated"}},{"type":"Feature","geometry":{"type":"Point","coordinates":[-80.2708,42.7546]},"properties":{"name":"Werden","color":"terminated"}},{"type":"Feature","geometry":{"type":"Point","coordinates":[-80.2708,42.7546]},"properties":{"name":"Werden","color":"terminated"}},{"type":"Feature","geometry":{"type":"Point","coordinates":[-80.2708,42.7546]},"properties":{"name":"Werden","color":"terminated"}},{"type":"Feature","geometry":{"type":"Point","coordinates":[-80.2708,42.7546]},"properties":{"name":"Werden","color":"terminated"}},{"type":"Feature","geometry":{"type":"Point","coordinates":[-80.2724,42.7551]},"properties":{"name":"Werden","color":"active"}},{"type":"Feature","geometry":{"type":"Point","coordinates":[-80.585,42.8142]},"properties":{"name":"Falconer_Farm","color":"terminated"}},{"type":"Feature","geometry":{"type":"Point","coordinates":[-80.585,42.8142]},"properties":{"name":"Falconer_Farm","color":"terminated"}},{"type":"Feature","geometry":{"type":"Point","coordinates":[-80.2913,43.2785]},"properties":{"name":"Onondaga","color":"active"}},{"type":"Feature","geometry":{"type":"Point","coordinates":[-81.7346,42.6119]},"properties":{"name":"Arkey's Acres","color":"terminated"}},{"type":"Feature","geometry":{"type":"Point","coordinates":[-81.7346,42.6119]},"properties":{"name":"Arkey's Acres","color":"terminated"}},{"type":"Feature","geometry":{"type":"Point","coordinates":[-81.7346,42.6119]},"properties":{"name":"Arkey's Acres","color":"terminated"}},{"type":"Feature","geometry":{"type":"Point","coordinates":[-81.7345,42.6119]},"properties":{"name":"Arkey's Acres","color":"terminated"}},{"type":"Feature","geometry":{"type":"Point","coordinates":[-81.7345,42.6119]},"properties":{"name":"Arkey's Acres","color":"terminated"}},{"type":"Feature","geometry":{"type":"Point","coordinates":[-81.7345,42.6119]},"properties":{"name":"Arkey's Acres","color":"active"}},{"type":"Feature","geometry":{"type":"Point","coordinates":[-79.9029,44.1484]},"properties":{"name":"Earl_Rowe_PP","color":"active"}},{"type":"Feature","geometry":{"type":"Point","coordinates":[-79.9029,44.1484]},"properties":{"name":"Earl_Rowe_PP","color":"terminated"}},{"type":"Feature","geometry":{"type":"Point","coordinates":[-79.9029,44.1484]},"properties":{"name":"Earl_Rowe_PP","color":"terminated"}},{"type":"Feature","geometry":{"type":"Point","coordinates":[-79.9029,44.1484]},"properties":{"name":"Earl_Rowe_PP","color":"terminated"}},{"type":"Feature","geometry":{"type":"Point","coordinates":[-79.9029,44.1484]},"properties":{"name":"Earl_Rowe_PP","color":"terminated"}},{"type":"Feature","geometry":{"type":"Point","coordinates":[-80.3495,42.6898]},"properties":{"name":"Long Point Eco-Adventures","color":"terminated"}},{"type":"Feature","geometry":{"type":"Point","coordinates":[-80.3495,42.6898]},"properties":{"name":"Long Point Eco-Adventures","color":"terminated"}},{"type":"Feature","geometry":{"type":"Point","coordinates":[-80.6238,51.285]},"properties":{"name":"Moosonee","color":"active"}},{"type":"Feature","geometry":{"type":"Point","coordinates":[-80.3525,43.3768]},"properties":{"name":"Cambridge_RARE","color":"terminated"}},{"type":"Feature","geometry":{"type":"Point","coordinates":[-80.3108,42.9155]},"properties":{"name":"Waterford","color":"terminated"}},{"type":"Feature","geometry":{"type":"Point","coordinates":[-80.3108,42.9155]},"properties":{"name":"Waterford","color":"terminated"}},{"type":"Feature","geometry":{"type":"Point","coordinates":[-79.9237,42.8894]},"properties":{"name":"Haldimand Raptor Reserve","color":"terminated"}},{"type":"Feature","geometry":{"type":"Point","coordinates":[-79.9237,42.8894]},"properties":{"name":"Haldimand Raptor Reserve","color":"terminated"}},{"type":"Feature","geometry":{"type":"Point","coordinates":[-79.9237,42.8894]},"properties":{"name":"Haldimand Raptor Reserve","color":"terminated"}},{"type":"Feature","geometry":{"type":"Point","coordinates":[-79.9237,42.8894]},"properties":{"name":"Haldimand Raptor Reserve","color":"active"}},{"type":"Feature","geometry":{"type":"Point","coordinates":[-80.5424,42.7005]},"properties":{"name":"Lower Big Creek","color":"terminated"}},{"type":"Feature","geometry":{"type":"Point","coordinates":[-80.5424,42.7005]},"properties":{"name":"Lower Big Creek","color":"terminated"}},{"type":"Feature","geometry":{"type":"Point","coordinates":[-88.9374,48.3032]},"properties":{"name":"Thunder Cape","color":"terminated"}},{"type":"Feature","geometry":{"type":"Point","coordinates":[-80.5434,42.7]},"properties":{"name":"Lower Big Creek","color":"terminated"}},{"type":"Feature","geometry":{"type":"Point","coordinates":[-80.3966,42.5835]},"properties":{"name":"Old Cut","color":"terminated"}},{"type":"Feature","geometry":{"type":"Point","coordinates":[-80.3984,42.5829]},"properties":{"name":"OLDCUT","color":"terminated"}},{"type":"Feature","geometry":{"type":"Point","coordinates":[-80.3965,42.5834]},"properties":{"name":"Old Cut","color":"terminated"}},{"type":"Feature","geometry":{"type":"Point","coordinates":[-80.3965,42.5834]},"properties":{"name":"Old Cut","color":"terminated"}},{"type":"Feature","geometry":{"type":"Point","coordinates":[-80.3984,42.5829]},"properties":{"name":"Old Cut","color":"terminated"}},{"type":"Feature","geometry":{"type":"Point","coordinates":[-81.185,42.9304]},"properties":{"name":"CompuDataTest","color":"terminated"}},{"type":"Feature","geometry":{"type":"Point","coordinates":[-80.3984,42.5829]},"properties":{"name":"Old Cut","color":"terminated"}},{"type":"Feature","geometry":{"type":"Point","coordinates":[-80.3984,42.5829]},"properties":{"name":"Old Cut","color":"active"}},{"type":"Feature","geometry":{"type":"Point","coordinates":[-80.3984,42.5829]},"properties":{"name":"Old Cut","color":"terminated"}},{"type":"Feature","geometry":{"type":"Point","coordinates":[-80.4573,42.6144]},"properties":{"name":"BSC HQ","color":"terminated"}},{"type":"Feature","geometry":{"type":"Point","coordinates":[-80.4573,42.6144]},"properties":{"name":"BSC HQ","color":"terminated"}},{"type":"Feature","geometry":{"type":"Point","coordinates":[-80.4582,42.6154]},"properties":{"name":"BSC HQ","color":"active"}},{"type":"Feature","geometry":{"type":"Point","coordinates":[-81.3254,42.6731]},"properties":{"name":"Fingal","color":"terminated"}},{"type":"Feature","geometry":{"type":"Point","coordinates":[-81.3254,42.6731]},"properties":{"name":"Fingal","color":"terminated"}},{"type":"Feature","geometry":{"type":"Point","coordinates":[-81.3254,42.673]},"properties":{"name":"Fingal","color":"terminated"}},{"type":"Feature","geometry":{"type":"Point","coordinates":[-81.3254,42.6731]},"properties":{"name":"Fingal","color":"terminated"}},{"type":"Feature","geometry":{"type":"Point","coordinates":[-81.3254,42.673]},"properties":{"name":"Fingal","color":"terminated"}},{"type":"Feature","geometry":{"type":"Point","coordinates":[-80.9462,42.8003]},"properties":{"name":"Aylmer","color":"terminated"}},{"type":"Feature","geometry":{"type":"Point","coordinates":[-80.9462,42.8003]},"properties":{"name":"Aylmer","color":"terminated"}},{"type":"Feature","geometry":{"type":"Point","coordinates":[-80.946,42.8005]},"properties":{"name":"Aylmer","color":"terminated"}},{"type":"Feature","geometry":{"type":"Point","coordinates":[-80.9463,42.8003]},"properties":{"name":"Aylmer","color":"terminated"}},{"type":"Feature","geometry":{"type":"Point","coordinates":[-80.946,42.8005]},"properties":{"name":"Aylmer","color":"active"}},{"type":"Feature","geometry":{"type":"Point","coordinates":[-80.946,42.8005]},"properties":{"name":"Aylmer","color":"terminated"}},{"type":"Feature","geometry":{"type":"Point","coordinates":[-78.7887,43.8735]},"properties":{"name":"DarlingtonPP","color":"terminated"}},{"type":"Feature","geometry":{"type":"Point","coordinates":[-78.129,43.9584]},"properties":{"name":"Cobourg","color":"terminated"}},{"type":"Feature","geometry":{"type":"Point","coordinates":[-81.1,44.2852]},"properties":{"name":"Chesley","color":"terminated"}},{"type":"Feature","geometry":{"type":"Point","coordinates":[-81.0992,44.2853]},"properties":{"name":"Chesley","color":"terminated"}},{"type":"Feature","geometry":{"type":"Point","coordinates":[-81.1,44.2852]},"properties":{"name":"Chesley","color":"terminated"}},{"type":"Feature","geometry":{"type":"Point","coordinates":[-81.1,44.2852]},"properties":{"name":"Chesley","color":"active"}},{"type":"Feature","geometry":{"type":"Point","coordinates":[-80.012,43.4429]},"properties":{"name":"Campbellville","color":"active"}},{"type":"Feature","geometry":{"type":"Point","coordinates":[-80.5434,42.6999]},"properties":{"name":"Lower Big Creek","color":"terminated"}},{"type":"Feature","geometry":{"type":"Point","coordinates":[-80.012,43.4429]},"properties":{"name":"Campbellville","color":"terminated"}},{"type":"Feature","geometry":{"type":"Point","coordinates":[-80.012,43.4429]},"properties":{"name":"Campbellville","color":"terminated"}},{"type":"Feature","geometry":{"type":"Point","coordinates":[-80.6499,42.6921]},"properties":{"name":"Frogmore Batbox","color":"terminated"}},{"type":"Feature","geometry":{"type":"Point","coordinates":[-80.9472,44.5049]},"properties":{"name":"Sydenham2","color":"terminated"}},{"type":"Feature","geometry":{"type":"Point","coordinates":[-80.9472,44.5049]},"properties":{"name":"Sydenham2","color":"terminated"}},{"type":"Feature","geometry":{"type":"Point","coordinates":[-80.9472,44.5049]},"properties":{"name":"Sydenham2","color":"active"}},{"type":"Feature","geometry":{"type":"Point","coordinates":[-81.2585,44.3337]},"properties":{"name":"Paisley","color":"terminated"}},{"type":"Feature","geometry":{"type":"Point","coordinates":[-81.2585,44.3337]},"properties":{"name":"Paisley","color":"terminated"}},{"type":"Feature","geometry":{"type":"Point","coordinates":[-81.48,44.3693]},"properties":{"name":"Glass","color":"active"}},{"type":"Feature","geometry":{"type":"Point","coordinates":[-81.2585,44.3337]},"properties":{"name":"Paisley","color":"terminated"}},{"type":"Feature","geometry":{"type":"Point","coordinates":[-80.5703,44.5274]},"properties":{"name":"Meaford","color":"terminated"}},{"type":"Feature","geometry":{"type":"Point","coordinates":[-80.5703,44.5274]},"properties":{"name":"Meaford","color":"terminated"}},{"type":"Feature","geometry":{"type":"Point","coordinates":[-80.5703,44.5274]},"properties":{"name":"Meaford","color":"active"}},{"type":"Feature","geometry":{"type":"Point","coordinates":[-82.1727,42.2136]},"properties":{"name":"Merlin","color":"active"}},{"type":"Feature","geometry":{"type":"Point","coordinates":[-82.1727,42.2136]},"properties":{"name":"Merlin","color":"terminated"}},{"type":"Feature","geometry":{"type":"Point","coordinates":[-82.1727,42.2136]},"properties":{"name":"Merlin","color":"terminated"}},{"type":"Feature","geometry":{"type":"Point","coordinates":[-82.1727,42.2136]},"properties":{"name":"Merlin","color":"terminated"}},{"type":"Feature","geometry":{"type":"Point","coordinates":[-81.4697,43.6489]},"properties":{"name":"Hullet_Provincial_Wildlife_Area2","color":"terminated"}},{"type":"Feature","geometry":{"type":"Point","coordinates":[-81.4697,43.6489]},"properties":{"name":"Hullet_Provincial_Wildlife_Area2","color":"terminated"}},{"type":"Feature","geometry":{"type":"Point","coordinates":[-81.4697,43.6489]},"properties":{"name":"Hullet_Provincial_Wildlife_Area2","color":"terminated"}},{"type":"Feature","geometry":{"type":"Point","coordinates":[-81.4697,43.6489]},"properties":{"name":"Hullet_Provincial_Wildlife_Area2","color":"active"}},{"type":"Feature","geometry":{"type":"Point","coordinates":[-80.2844,42.5611]},"properties":{"name":"Breakwater","color":"active"}},{"type":"Feature","geometry":{"type":"Point","coordinates":[-80.1842,42.8101]},"properties":{"name":"Dover_Quarry","color":"terminated"}},{"type":"Feature","geometry":{"type":"Point","coordinates":[-80.0439,42.8084]},"properties":{"name":"Nanticoke","color":"active"}},{"type":"Feature","geometry":{"type":"Point","coordinates":[-81.1985,43.4538]},"properties":{"name":"Mitchell","color":"active"}},{"type":"Feature","geometry":{"type":"Point","coordinates":[-81.1985,43.4538]},"properties":{"name":"Mitchell","color":"terminated"}},{"type":"Feature","geometry":{"type":"Point","coordinates":[-81.1985,43.4538]},"properties":{"name":"Mitchell","color":"terminated"}},{"type":"Feature","geometry":{"type":"Point","coordinates":[-80.5763,42.5819]},"properties":{"name":"Clear Creek","color":"terminated"}},{"type":"Feature","geometry":{"type":"Point","coordinates":[-80.5763,42.5819]},"properties":{"name":"Clear Creek","color":"terminated"}},{"type":"Feature","geometry":{"type":"Point","coordinates":[-76.8617,43.9398]},"properties":{"name":"Prince_Edward_Point_Bird_Observatory","color":"terminated"}},{"type":"Feature","geometry":{"type":"Point","coordinates":[-76.8617,43.9398]},"properties":{"name":"Prince_Edward_Point_Bird_Observatory","color":"terminated"}},{"type":"Feature","geometry":{"type":"Point","coordinates":[-76.8617,43.9398]},"properties":{"name":"Prince_Edward_Point_Bird_Observatory","color":"terminated"}},{"type":"Feature","geometry":{"type":"Point","coordinates":[-80.3978,42.583]},"properties":{"name":"Western_University_Trailer_OldCut","color":"terminated"}},{"type":"Feature","geometry":{"type":"Point","coordinates":[-80.3525,43.3768]},"properties":{"name":"Cambridge_RARE","color":"terminated"}},{"type":"Feature","geometry":{"type":"Point","coordinates":[-80.3852,42.5823]},"properties":{"name":"Long Point Provincial Park","color":"terminated"}},{"type":"Feature","geometry":{"type":"Point","coordinates":[-80.5023,42.6728]},"properties":{"name":"Anderson","color":"terminated"}},{"type":"Feature","geometry":{"type":"Point","coordinates":[-78.6368,43.8932]},"properties":{"name":"Wilmot Creek","color":"active"}},{"type":"Feature","geometry":{"type":"Point","coordinates":[-80.1281,42.9863]},"properties":{"name":"Hagersville_Landfill","color":"active"}},{"type":"Feature","geometry":{"type":"Point","coordinates":[-80.1281,42.9863]},"properties":{"name":"Hagersville_Landfill","color":"terminated"}},{"type":"Feature","geometry":{"type":"Point","coordinates":[-79.7604,43.4047]},"properties":{"name":"Bronte_Creek_Provincial_Park","color":"terminated"}},{"type":"Feature","geometry":{"type":"Point","coordinates":[-79.7604,43.4047]},"properties":{"name":"Bronte_Creek_Provincial_Park","color":"terminated"}},{"type":"Feature","geometry":{"type":"Point","coordinates":[-79.7604,43.4047]},"properties":{"name":"Bronte_Creek_Provincial_Park","color":"terminated"}},{"type":"Feature","geometry":{"type":"Point","coordinates":[-81.0627,42.6616]},"properties":{"name":"West Port Bruce","color":"active"}},{"type":"Feature","geometry":{"type":"Point","coordinates":[-80.9044,42.6618]},"properties":{"name":"East Port Bruce","color":"terminated"}},{"type":"Feature","geometry":{"type":"Point","coordinates":[-80.4036,42.7877]},"properties":{"name":"Zorad","color":"active"}},{"type":"Feature","geometry":{"type":"Point","coordinates":[-80.3573,42.7102]},"properties":{"name":"Turkey Point","color":"active"}},{"type":"Feature","geometry":{"type":"Point","coordinates":[-80.3573,42.7102]},"properties":{"name":"Turkey Point","color":"terminated"}},{"type":"Feature","geometry":{"type":"Point","coordinates":[-79.3434,43.6136]},"properties":{"name":"Tommy Thompson Park","color":"terminated"}},{"type":"Feature","geometry":{"type":"Point","coordinates":[-78.6368,43.8932]},"properties":{"name":"Wilmot Creek","color":"terminated"}},{"type":"Feature","geometry":{"type":"Point","coordinates":[-78.6368,43.8932]},"properties":{"name":"Wilmot Creek","color":"terminated"}},{"type":"Feature","geometry":{"type":"Point","coordinates":[-78.9081,43.8487]},"properties":{"name":"Gerdau","color":"terminated"}},{"type":"Feature","geometry":{"type":"Point","coordinates":[-78.7538,43.8689]},"properties":{"name":"Durham Treatment Plant","color":"terminated"}},{"type":"Feature","geometry":{"type":"Point","coordinates":[-80.5577,42.6354]},"properties":{"name":"Walsingham Super Tower","color":"active"}},{"type":"Feature","geometry":{"type":"Point","coordinates":[-80.644,42.7012]},"properties":{"name":"Lukosius","color":"terminated"}},{"type":"Feature","geometry":{"type":"Point","coordinates":[-80.644,42.7012]},"properties":{"name":"Lukosius","color":"terminated"}},{"type":"Feature","geometry":{"type":"Point","coordinates":[-80.644,42.7012]},"properties":{"name":"Lukosius","color":"terminated"}},{"type":"Feature","geometry":{"type":"Point","coordinates":[-80.5623,42.7259]},"properties":{"name":"Langton","color":"active"}},{"type":"Feature","geometry":{"type":"Point","coordinates":[-79.6467,42.3087]},"properties":{"name":"Westfield (Correll)","color":"terminated"}},{"type":"Feature","geometry":{"type":"Point","coordinates":[-79.6467,42.3087]},"properties":{"name":"Correll","color":"terminated"}},{"type":"Feature","geometry":{"type":"Point","coordinates":[-79.6467,42.3087]},"properties":{"name":"Westfield (Correll)","color":"terminated"}},{"type":"Feature","geometry":{"type":"Point","coordinates":[-79.6467,42.3087]},"properties":{"name":"Westfield (Correll)","color":"terminated"}},{"type":"Feature","geometry":{"type":"Point","coordinates":[-79.6467,42.3087]},"properties":{"name":"Westfield (Correll)","color":"active"}},{"type":"Feature","geometry":{"type":"Point","coordinates":[-79.9602,42.9439]},"properties":{"name":"Nelles","color":"terminated"}},{"type":"Feature","geometry":{"type":"Point","coordinates":[-79.5371,44.0241]},"properties":{"name":"Koffler","color":"active"}},{"type":"Feature","geometry":{"type":"Point","coordinates":[-79.8394,42.1755]},"properties":{"name":"Kilgas","color":"terminated"}},{"type":"Feature","geometry":{"type":"Point","coordinates":[-79.8394,42.1755]},"properties":{"name":"Kilgas","color":"terminated"}},{"type":"Feature","geometry":{"type":"Point","coordinates":[-79.8394,42.1755]},"properties":{"name":"North East (Kilgas)","color":"terminated"}},{"type":"Feature","geometry":{"type":"Point","coordinates":[-79.8394,42.1755]},"properties":{"name":"North East (Kilgas)","color":"terminated"}},{"type":"Feature","geometry":{"type":"Point","coordinates":[-79.8394,42.1755]},"properties":{"name":"North East (Kilgas)","color":"active"}},{"type":"Feature","geometry":{"type":"Point","coordinates":[-79.8394,42.1755]},"properties":{"name":"North East (Kilgas)","color":"terminated"}},{"type":"Feature","geometry":{"type":"Point","coordinates":[-79.8394,42.1755]},"properties":{"name":"North East (Kilgas)","color":"terminated"}},{"type":"Feature","geometry":{"type":"Point","coordinates":[-76.3884,44.1414]},"properties":{"name":"Wolfe","color":"active"}},{"type":"Feature","geometry":{"type":"Point","coordinates":[-80.1541,42.1098]},"properties":{"name":"PresqueIsle","color":"active"}},{"type":"Feature","geometry":{"type":"Point","coordinates":[-81.1774,44.0535]},"properties":{"name":"Formosa","color":"terminated"}},{"type":"Feature","geometry":{"type":"Point","coordinates":[-81.1774,44.0535]},"properties":{"name":"Formosa","color":"terminated"}},{"type":"Feature","geometry":{"type":"Point","coordinates":[-81.1774,44.0535]},"properties":{"name":"Formosa","color":"terminated"}},{"type":"Feature","geometry":{"type":"Point","coordinates":[-81.1774,44.0535]},"properties":{"name":"Formosa","color":"active"}},{"type":"Feature","geometry":{"type":"Point","coordinates":[-80.4179,42.5917]},"properties":{"name":"Crown Marsh","color":"terminated"}},{"type":"Feature","geometry":{"type":"Point","coordinates":[-80.2913,43.2785]},"properties":{"name":"Camp Onondaga - THFC","color":"terminated"}},{"type":"Feature","geometry":{"type":"Point","coordinates":[-74.7903,45.0091]},"properties":{"name":"Saunders","color":"active"}},{"type":"Feature","geometry":{"type":"Point","coordinates":[-79.6989,47.7408]},"properties":{"name":"Hilliardton","color":"active"}},{"type":"Feature","geometry":{"type":"Point","coordinates":[-80.712,41.8376]},"properties":{"name":"Kingsville","color":"terminated"}},{"type":"Feature","geometry":{"type":"Point","coordinates":[-80.712,41.8376]},"properties":{"name":"Kingsville","color":"terminated"}},{"type":"Feature","geometry":{"type":"Point","coordinates":[-80.3379,41.9856]},"properties":{"name":"Girard","color":"terminated"}},{"type":"Feature","geometry":{"type":"Point","coordinates":[-80.3379,41.9856]},"properties":{"name":"Girard","color":"terminated"}},{"type":"Feature","geometry":{"type":"Point","coordinates":[-80.3379,41.9856]},"properties":{"name":"Girard","color":"terminated"}},{"type":"Feature","geometry":{"type":"Point","coordinates":[-80.3379,41.9856]},"properties":{"name":"Girard","color":"terminated"}},{"type":"Feature","geometry":{"type":"Point","coordinates":[-80.3379,41.9856]},"properties":{"name":"Girard","color":"active"}},{"type":"Feature","geometry":{"type":"Point","coordinates":[-79.3553,42.493]},"properties":{"name":"Dunkirk Lighthouse","color":"terminated"}},{"type":"Feature","geometry":{"type":"Point","coordinates":[-79.3553,42.493]},"properties":{"name":"Dunkirk Lighthouse","color":"active"}},{"type":"Feature","geometry":{"type":"Point","coordinates":[-79.3553,42.493]},"properties":{"name":"Dunkirk Lighthouse","color":"terminated"}},{"type":"Feature","geometry":{"type":"Point","coordinates":[-79.3553,42.493]},"properties":{"name":"Dunkirk Lighthouse","color":"terminated"}},{"type":"Feature","geometry":{"type":"Point","coordinates":[-79.111,42.6127]},"properties":{"name":"Evangola State Park","color":"terminated"}},{"type":"Feature","geometry":{"type":"Point","coordinates":[-79.3434,43.6136]},"properties":{"name":"Tommy Thompson","color":"terminated"}},{"type":"Feature","geometry":{"type":"Point","coordinates":[-79.3434,43.6136]},"properties":{"name":"Tommy Thompson","color":"terminated"}},{"type":"Feature","geometry":{"type":"Point","coordinates":[-81.6074,41.5015]},"properties":{"name":"Case Western Reserve University","color":"terminated"}},{"type":"Feature","geometry":{"type":"Point","coordinates":[-80.9701,41.8582]},"properties":{"name":"Geneva","color":"terminated"}},{"type":"Feature","geometry":{"type":"Point","coordinates":[-80.9701,41.8582]},"properties":{"name":"Geneva","color":"active"}},{"type":"Feature","geometry":{"type":"Point","coordinates":[-80.9701,41.8582]},"properties":{"name":"Geneva","color":"terminated"}},{"type":"Feature","geometry":{"type":"Point","coordinates":[-80.5763,42.5819]},"properties":{"name":"Clear Creek","color":"active"}},{"type":"Feature","geometry":{"type":"Point","coordinates":[-80.6478,42.6945]},"properties":{"name":"Arthur Langford Reserve","color":"terminated"}},{"type":"Feature","geometry":{"type":"Point","coordinates":[-80.5763,42.5819]},"properties":{"name":"Clear Creek","color":"terminated"}},{"type":"Feature","geometry":{"type":"Point","coordinates":[-80.5763,42.5819]},"properties":{"name":"Clear Creek","color":"terminated"}},{"type":"Feature","geometry":{"type":"Point","coordinates":[-80.5763,42.5819]},"properties":{"name":"Clear Creek","color":"terminated"}},{"type":"Feature","geometry":{"type":"Point","coordinates":[-80.5763,42.5819]},"properties":{"name":"Clear Creek","color":"terminated"}},{"type":"Feature","geometry":{"type":"Point","coordinates":[-81.2755,43.0096]},"properties":{"name":"UWO - SSC","color":"terminated"}},{"type":"Feature","geometry":{"type":"Point","coordinates":[-80.5033,42.6728]},"properties":{"name":"Anderson","color":"terminated"}},{"type":"Feature","geometry":{"type":"Point","coordinates":[-78.129,43.9584]},"properties":{"name":"Cobourg","color":"terminated"}},{"type":"Feature","geometry":{"type":"Point","coordinates":[-79.7506,44.7913]},"properties":{"name":"Port Severn Wetland","color":"active"}},{"type":"Feature","geometry":{"type":"Point","coordinates":[-79.3434,43.6136]},"properties":{"name":"Tommy Thompson Park","color":"terminated"}},{"type":"Feature","geometry":{"type":"Point","coordinates":[-80.7218,42.6227]},"properties":{"name":"Bolin_Port_Burwell","color":"terminated"}},{"type":"Feature","geometry":{"type":"Point","coordinates":[-80.7218,42.6227]},"properties":{"name":"Bolin_Port_Burwell","color":"terminated"}},{"type":"Feature","geometry":{"type":"Point","coordinates":[-80.7218,42.6227]},"properties":{"name":"Bolin_Port_Burwell","color":"terminated"}},{"type":"Feature","geometry":{"type":"Point","coordinates":[-76.8617,43.9398]},"properties":{"name":"Prince Edward Point","color":"active"}},{"type":"Feature","geometry":{"type":"Point","coordinates":[-80.5177,42.9673]},"properties":{"name":"Bookton","color":"terminated"}},{"type":"Feature","geometry":{"type":"Point","coordinates":[-80.6362,43.442]},"properties":{"name":"SpruceHaven","color":"terminated"}},{"type":"Feature","geometry":{"type":"Point","coordinates":[-80.6362,43.442]},"properties":{"name":"SpruceHaven","color":"active"}},{"type":"Feature","geometry":{"type":"Point","coordinates":[-80.9781,43.2408]},"properties":{"name":"Harrington","color":"active"}},{"type":"Feature","geometry":{"type":"Point","coordinates":[-81.0789,43.2567]},"properties":{"name":"Wildwood","color":"terminated"}},{"type":"Feature","geometry":{"type":"Point","coordinates":[-79.8309,43.0997]},"properties":{"name":"Binbrook_Conservation_Area","color":"terminated"}},{"type":"Feature","geometry":{"type":"Point","coordinates":[-80.5849,42.8142]},"properties":{"name":"Falconer_Farm","color":"terminated"}},{"type":"Feature","geometry":{"type":"Point","coordinates":[-80.748,43.0585]},"properties":{"name":"Curries","color":"active"}},{"type":"Feature","geometry":{"type":"Point","coordinates":[-79.8847,44.8762]},"properties":{"name":"Brebeuf Island","color":"active"}},{"type":"Feature","geometry":{"type":"Point","coordinates":[-79.7504,44.7911]},"properties":{"name":"Port Severn Wetland","color":"terminated"}},{"type":"Feature","geometry":{"type":"Point","coordinates":[-81.3673,42.9254]},"properties":{"name":"Auzins","color":"active"}},{"type":"Feature","geometry":{"type":"Point","coordinates":[-81.3254,42.6731]},"properties":{"name":"Fingal","color":"terminated"}},{"type":"Feature","geometry":{"type":"Point","coordinates":[-81.3254,42.6731]},"properties":{"name":"Fingal","color":"active"}},{"type":"Feature","geometry":{"type":"Point","coordinates":[-79.8761,42.9776]},"properties":{"name":"Ruthven","color":"terminated"}},{"type":"Feature","geometry":{"type":"Point","coordinates":[-79.8309,43.0997]},"properties":{"name":"Binbrook","color":"terminated"}},{"type":"Feature","geometry":{"type":"Point","coordinates":[-79.8309,43.0997]},"properties":{"name":"Binbrook","color":"active"}},{"type":"Feature","geometry":{"type":"Point","coordinates":[-88.9379,48.302]},"properties":{"name":"Thunder Cape","color":"terminated"}},{"type":"Feature","geometry":{"type":"Point","coordinates":[-82.6398,41.7965]},"properties":{"name":"Pelee Island","color":"active"}},{"type":"Feature","geometry":{"type":"Point","coordinates":[-79.6305,45.6312]},"properties":{"name":"Magnetewan","color":"terminated"}},{"type":"Feature","geometry":{"type":"Point","coordinates":[-79.432,46.3372]},"properties":{"name":"North Bay","color":"terminated"}},{"type":"Feature","geometry":{"type":"Point","coordinates":[-123.2271,48.4255]},"properties":{"name":"Discovery Island","color":"active"}},{"type":"Feature","geometry":{"type":"Point","coordinates":[-80.2701,43.605]},"properties":{"name":"Guelph_Lake_CA","color":"active"}},{"type":"Feature","geometry":{"type":"Point","coordinates":[-79.5125,44.9673]},"properties":{"name":"Torrance A","color":"terminated"}},{"type":"Feature","geometry":{"type":"Point","coordinates":[-79.503,44.9404]},"properties":{"name":"Torrance B","color":"active"}},{"type":"Feature","geometry":{"type":"Point","coordinates":[-79.7604,43.4047]},"properties":{"name":"Bronte Creek","color":"active"}},{"type":"Feature","geometry":{"type":"Point","coordinates":[-80.7218,42.6226]},"properties":{"name":"Bolin_Port_Burwell","color":"active"}},{"type":"Feature","geometry":{"type":"Point","coordinates":[-82.5144,42.0427]},"properties":{"name":"Hillman_Marsh","color":"active"}},{"type":"Feature","geometry":{"type":"Point","coordinates":[-79.5126,44.9673]},"properties":{"name":"Torrance A","color":"terminated"}},{"type":"Feature","geometry":{"type":"Point","coordinates":[-79.5235,44.945]},"properties":{"name":"Torrance C","color":"active"}},{"type":"Feature","geometry":{"type":"Point","coordinates":[-79.9835,44.9993]},"properties":{"name":"Split Rock","color":"active"}},{"type":"Feature","geometry":{"type":"Point","coordinates":[-79.4659,43.646]},"properties":{"name":"High Park","color":"active"}},{"type":"Feature","geometry":{"type":"Point","coordinates":[-79.6305,45.6312]},"properties":{"name":"Magnetawan","color":"terminated"}},{"type":"Feature","geometry":{"type":"Point","coordinates":[-83.067,42.2766]},"properties":{"name":"Malden Park","color":"terminated"}},{"type":"Feature","geometry":{"type":"Point","coordinates":[-81.2755,43.0096]},"properties":{"name":"UWO-SSC","color":"active"}},{"type":"Feature","geometry":{"type":"Point","coordinates":[-81.2755,43.0096]},"properties":{"name":"UWO-SSC","color":"terminated"}},{"type":"Feature","geometry":{"type":"Point","coordinates":[-81.3792,40.8274]},"properties":{"name":"Malone University","color":"active"}},{"type":"Feature","geometry":{"type":"Point","coordinates":[-79.4319,46.3371]},"properties":{"name":"North Bay","color":"active"}},{"type":"Feature","geometry":{"type":"Point","coordinates":[-79.3207,43.6459]},"properties":{"name":"Tommy Thompson Park","color":"active"}},{"type":"Feature","geometry":{"type":"Point","coordinates":[-80.5008,45.7694]},"properties":{"name":"Magnetawan First Nation","color":"active"}}]}