{"type":"FeatureCollection","features":[{"type":"Feature","geometry":{"type":"Point","coordinates":[7.88,54.18]},"properties":{"ID":"2115","projectID":"76","name":"FG1","lastEditedDt":"12/3/2019 5:08:58","status":"1","description":"Site ID:  2115 <br>Landowner ID:  NA Last edited on:  12/3/2019 5:08:58"}},{"type":"Feature","geometry":{"type":"Point","coordinates":[7.88,54.18]},"properties":{"ID":"2116","projectID":"76","name":"FG1_2016","lastEditedDt":"12/3/2019 5:08:58","status":"1","description":"Site ID:  2116 <br>Landowner ID:  NA Last edited on:  12/3/2019 5:08:58"}},{"type":"Feature","geometry":{"type":"Point","coordinates":[7.88,54.18]},"properties":{"ID":"2117","projectID":"76","name":"FG1_2016_2","lastEditedDt":"12/3/2019 5:08:58","status":"1","description":"Site ID:  2117 <br>Landowner ID:  NA Last edited on:  12/3/2019 5:08:58"}},{"type":"Feature","geometry":{"type":"Point","coordinates":[7.88,54.18]},"properties":{"ID":"2118","projectID":"76","name":"HelgolandFG1","lastEditedDt":"12/3/2019 5:08:58","status":"2","description":"Site ID:  2118 <br>Landowner ID:  NA Last edited on:  12/3/2019 5:08:58"}},{"type":"Feature","geometry":{"type":"Point","coordinates":[7.88,54.18]},"properties":{"ID":"2119","projectID":"76","name":"FG1fall","lastEditedDt":"12/3/2019 5:08:58","status":"1","description":"Site ID:  2119 <br>Landowner ID:  NA Last edited on:  12/3/2019 5:08:58"}},{"type":"Feature","geometry":{"type":"Point","coordinates":[6.97,53.67]},"properties":{"ID":"2120","projectID":"76","name":"Juist 1 ","lastEditedDt":"12/3/2019 5:08:58","status":"2","description":"Site ID:  2120 <br>Landowner ID:  NA Last edited on:  12/3/2019 5:08:58"}},{"type":"Feature","geometry":{"type":"Point","coordinates":[7.48,53.75]},"properties":{"ID":"2121","projectID":"76","name":"Langeoog 1 ","lastEditedDt":"12/3/2019 5:08:58","status":"2","description":"Site ID:  2121 <br>Landowner ID:  NA Last edited on:  12/3/2019 5:08:58"}},{"type":"Feature","geometry":{"type":"Point","coordinates":[7.88,54.17]},"properties":{"ID":"2122","projectID":"76","name":"HelgolandML1","lastEditedDt":"12/3/2019 5:08:58","status":"2","description":"Site ID:  2122 <br>Landowner ID:  NA Last edited on:  12/3/2019 5:08:58"}},{"type":"Feature","geometry":{"type":"Point","coordinates":[7.88,54.17]},"properties":{"ID":"2123","projectID":"76","name":"ML1_2016","lastEditedDt":"12/3/2019 5:08:58","status":"1","description":"Site ID:  2123 <br>Landowner ID:  NA Last edited on:  12/3/2019 5:08:58"}},{"type":"Feature","geometry":{"type":"Point","coordinates":[7.88,54.17]},"properties":{"ID":"2124","projectID":"76","name":"ML1_2017","lastEditedDt":"12/3/2019 5:08:58","status":"1","description":"Site ID:  2124 <br>Landowner ID:  NA Last edited on:  12/3/2019 5:08:58"}},{"type":"Feature","geometry":{"type":"Point","coordinates":[7.88,54.17]},"properties":{"ID":"2125","projectID":"76","name":"ML1fall","lastEditedDt":"12/3/2019 5:08:58","status":"1","description":"Site ID:  2125 <br>Landowner ID:  NA Last edited on:  12/3/2019 5:08:58"}},{"type":"Feature","geometry":{"type":"Point","coordinates":[7.88,54.17]},"properties":{"ID":"2126","projectID":"76","name":"ML2_2017","lastEditedDt":"12/3/2019 5:08:58","status":"1","description":"Site ID:  2126 <br>Landowner ID:  NA Last edited on:  12/3/2019 5:08:58"}},{"type":"Feature","geometry":{"type":"Point","coordinates":[7.87,54.18]},"properties":{"ID":"2127","projectID":"76","name":"RT1","lastEditedDt":"12/3/2019 5:08:58","status":"1","description":"Site ID:  2127 <br>Landowner ID:  NA Last edited on:  12/3/2019 5:08:58"}},{"type":"Feature","geometry":{"type":"Point","coordinates":[7.87,54.18]},"properties":{"ID":"2128","projectID":"76","name":"RT1_2016","lastEditedDt":"12/3/2019 5:08:58","status":"1","description":"Site ID:  2128 <br>Landowner ID:  NA Last edited on:  12/3/2019 5:08:58"}},{"type":"Feature","geometry":{"type":"Point","coordinates":[7.87,54.18]},"properties":{"ID":"2129","projectID":"76","name":"HelgolandRT1","lastEditedDt":"12/3/2019 5:08:58","status":"2","description":"Site ID:  2129 <br>Landowner ID:  NA Last edited on:  12/3/2019 5:08:58"}},{"type":"Feature","geometry":{"type":"Point","coordinates":[7.87,54.18]},"properties":{"ID":"2130","projectID":"76","name":"RT1spring","lastEditedDt":"12/3/2019 5:08:58","status":"1","description":"Site ID:  2130 <br>Landowner ID:  NA Last edited on:  12/3/2019 5:08:58"}},{"type":"Feature","geometry":{"type":"Point","coordinates":[7.87,54.18]},"properties":{"ID":"2131","projectID":"76","name":"RT2","lastEditedDt":"12/3/2019 5:08:58","status":"1","description":"Site ID:  2131 <br>Landowner ID:  NA Last edited on:  12/3/2019 5:08:58"}},{"type":"Feature","geometry":{"type":"Point","coordinates":[7.87,54.18]},"properties":{"ID":"2132","projectID":"76","name":"RT2_2016","lastEditedDt":"12/3/2019 5:08:58","status":"1","description":"Site ID:  2132 <br>Landowner ID:  NA Last edited on:  12/3/2019 5:08:58"}},{"type":"Feature","geometry":{"type":"Point","coordinates":[7.87,54.18]},"properties":{"ID":"2133","projectID":"76","name":"HelgolandRT2","lastEditedDt":"12/3/2019 5:08:58","status":"2","description":"Site ID:  2133 <br>Landowner ID:  NA Last edited on:  12/3/2019 5:08:58"}},{"type":"Feature","geometry":{"type":"Point","coordinates":[7.87,54.18]},"properties":{"ID":"2134","projectID":"76","name":"RT2fall","lastEditedDt":"12/3/2019 5:08:58","status":"1","description":"Site ID:  2134 <br>Landowner ID:  NA Last edited on:  12/3/2019 5:08:58"}},{"type":"Feature","geometry":{"type":"Point","coordinates":[7.91,53.78]},"properties":{"ID":"2135","projectID":"76","name":"Wangerooge 1 ","lastEditedDt":"12/3/2019 5:08:58","status":"2","description":"Site ID:  2135 <br>Landowner ID:  NA Last edited on:  12/3/2019 5:08:58"}},{"type":"Feature","geometry":{"type":"Point","coordinates":[7.71,53.77]},"properties":{"ID":"2398","projectID":"76","name":"Spiekeroog 1","lastEditedDt":"12/3/2019 5:08:58","status":"2","description":"Site ID:  2398 <br>Landowner ID:  NA Last edited on:  12/3/2019 5:08:58"}},{"type":"Feature","geometry":{"type":"Point","coordinates":[7.23,53.7]},"properties":{"ID":"2488","projectID":"76","name":"Norderney 1 ","lastEditedDt":"12/3/2019 5:08:58","status":"2","description":"Site ID:  2488 <br>Landowner ID:  NA Last edited on:  12/3/2019 5:08:58"}},{"type":"Feature","geometry":{"type":"Point","coordinates":[6.66,53.58]},"properties":{"ID":"2491","projectID":"76","name":"Borkum 1 ","lastEditedDt":"12/3/2019 5:08:58","status":"2","description":"Site ID:  2491 <br>Landowner ID:  NA Last edited on:  12/3/2019 5:08:58"}},{"type":"Feature","geometry":{"type":"Point","coordinates":[8.36,54.64]},"properties":{"ID":"2638","projectID":"76","name":"Amrum 1 ","lastEditedDt":"12/3/2019 5:08:58","status":"2","description":"Site ID:  2638 <br>Landowner ID:  NA Last edited on:  12/3/2019 5:08:58"}},{"type":"Feature","geometry":{"type":"Point","coordinates":[8.28,54.79]},"properties":{"ID":"2639","projectID":"76","name":"Sylt 1 ","lastEditedDt":"12/3/2019 5:08:58","status":"2","description":"Site ID:  2639 <br>Landowner ID:  NA Last edited on:  12/3/2019 5:08:58"}}]}