{
"data":[
  {
    "ID": 2571,
    "projectID": 195,
    "landOwnerID": "NA",
    "name": "LaTuque-MFFP",
    "latitude": 47.43,
    "longitude": -72.77,
    "lastEditedDt": "7/31/2018 12:04:54"
  },
  {
    "ID": 2572,
    "projectID": 195,
    "landOwnerID": "NA",
    "name": "LaTuque-Presbytere",
    "latitude": 47.44,
    "longitude": -72.78,
    "lastEditedDt": "7/31/2018 12:06:25"
  },
  {
    "ID": 2573,
    "projectID": 195,
    "landOwnerID": "NA",
    "name": "LaTuque-Golf",
    "latitude": 47.43,
    "longitude": -72.79,
    "lastEditedDt": "7/31/2018 12:08:08"
  },
  {
    "ID": 2574,
    "projectID": 195,
    "landOwnerID": "NA",
    "name": "LacEdouard-Grange",
    "latitude": 47.64,
    "longitude": -72.29,
    "lastEditedDt": "7/31/2018 12:10:07"
  },
  {
    "ID": 2575,
    "projectID": 195,
    "landOwnerID": "NA",
    "name": "LacEdouard-Champs",
    "latitude": 47.65,
    "longitude": -72.29,
    "lastEditedDt": "7/31/2018 12:12:08"
  },
  {
    "ID": 2763,
    "projectID": 195,
    "landOwnerID": "NA",
    "name": "Pourvoirie Oswego",
    "latitude": 47.65,
    "longitude": -72.5,
    "lastEditedDt": "6/17/2019 19:02:46"
  },
  {
    "ID": 2764,
    "projectID": 195,
    "landOwnerID": "NA",
    "name": "Lac Édouard-1",
    "latitude": 47.61,
    "longitude": -72.36,
    "lastEditedDt": "6/17/2019 19:12:41"
  },
  {
    "ID": 2765,
    "projectID": 195,
    "landOwnerID": "NA",
    "name": "Lac-Edouard-2",
    "latitude": 47.53,
    "longitude": -72.37,
    "lastEditedDt": "6/17/2019 19:15:44"
  },
  {
    "ID": 2766,
    "projectID": 195,
    "landOwnerID": "NA",
    "name": "Triton",
    "latitude": 47.61,
    "longitude": -72.21,
    "lastEditedDt": "6/17/2019 19:20:42"
  },
  {
    "ID": 2767,
    "projectID": 195,
    "landOwnerID": "NA",
    "name": "Chaufferie",
    "latitude": 47.64,
    "longitude": -72.29,
    "lastEditedDt": "6/17/2019 19:31:33"
  },
  {
    "ID": 2801,
    "projectID": 195,
    "landOwnerID": "NA",
    "name": "Mobile-2",
    "latitude": 47.56,
    "longitude": -72.46,
    "lastEditedDt": "7/15/2019 12:19:15"
  }
], "columns":[
  {
    "data": "ID",
    "name": "ID"
  },
  {
    "data": "projectID",
    "name": "Project ID"
  },
  {
    "data": "landOwnerID",
    "name": "Land Owner ID"
  },
  {
    "data": "name",
    "name": "Name"
  },
  {
    "data": "latitude",
    "name": "Latitude"
  },
  {
    "data": "longitude",
    "name": "Longitude"
  },
  {
    "data": "lastEditedDt",
    "name": "Last Edited Date"
  }
]
}
