{"type":"FeatureCollection","features":[{"type":"Feature","geometry":{"type":"Point","coordinates":[-77.34,8.63]},"properties":{"ID":"1977","projectID":"57","name":"Capurganá","lastEditedDt":"3/12/2018 18:15:11","status":"2","description":"Site ID:  1977 <br>Landowner ID:  NA Last edited on:  3/12/2018 18:15:11"}},{"type":"Feature","geometry":{"type":"Point","coordinates":[-76.09,8.52]},"properties":{"ID":"1978","projectID":"57","landOwnerID":"3198","name":"Finca Las Palmeras","lastEditedDt":"3/12/2018 18:15:11","status":"2","description":"Site ID:  1978 <br>Landowner ID:  3198 Last edited on:  3/12/2018 18:15:11"}},{"type":"Feature","geometry":{"type":"Point","coordinates":[-74.53,4.32]},"properties":{"ID":"1979","projectID":"57","name":"La Fragua","lastEditedDt":"3/12/2018 18:15:11","status":"1","description":"Site ID:  1979 <br>Landowner ID:  NA Last edited on:  3/12/2018 18:15:11"}},{"type":"Feature","geometry":{"type":"Point","coordinates":[-74.08,11.12]},"properties":{"ID":"1980","projectID":"57","name":"La Victoria 1","lastEditedDt":"3/12/2018 18:15:11","status":"1","description":"Site ID:  1980 <br>Landowner ID:  NA Last edited on:  3/12/2018 18:15:11"}},{"type":"Feature","geometry":{"type":"Point","coordinates":[-74.09,11.12]},"properties":{"ID":"1981","projectID":"57","name":"La Victoria 2","lastEditedDt":"3/12/2018 18:15:11","status":"1","description":"Site ID:  1981 <br>Landowner ID:  NA Last edited on:  3/12/2018 18:15:11"}},{"type":"Feature","geometry":{"type":"Point","coordinates":[-74.51,4.36]},"properties":{"ID":"1982","projectID":"57","name":"Los Vientos Coffee","lastEditedDt":"3/12/2018 18:15:11","status":"2","description":"Site ID:  1982 <br>Landowner ID:  NA Last edited on:  3/12/2018 18:15:11"}},{"type":"Feature","geometry":{"type":"Point","coordinates":[-74.51,4.36]},"properties":{"ID":"1983","projectID":"57","name":"Los Vientos Forest","lastEditedDt":"3/12/2018 18:15:11","status":"2","description":"Site ID:  1983 <br>Landowner ID:  NA Last edited on:  3/12/2018 18:15:11"}},{"type":"Feature","geometry":{"type":"Point","coordinates":[-76.78,8.42]},"properties":{"ID":"1984","projectID":"57","landOwnerID":"3197","name":"Necocli","lastEditedDt":"3/12/2018 18:15:11","status":"2","description":"Site ID:  1984 <br>Landowner ID:  3197 Last edited on:  3/12/2018 18:15:11"}},{"type":"Feature","geometry":{"type":"Point","coordinates":[-73.58,4.08]},"properties":{"ID":"1985","projectID":"57","name":"Universidad de los L","lastEditedDt":"3/12/2018 18:15:11","status":"1","description":"Site ID:  1985 <br>Landowner ID:  NA Last edited on:  3/12/2018 18:15:11"}},{"type":"Feature","geometry":{"type":"Point","coordinates":[-83.62,10.06]},"properties":{"ID":"2926","projectID":"57","name":"Reserva Las Brisas","lastEditedDt":"10/11/2019 15:07:36","status":"2","description":"Site ID:  2926 <br>Landowner ID:  NA Last edited on:  10/11/2019 15:07:36"}}]}