{"type":"FeatureCollection","features":[{"type":"Feature","geometry":{"type":"Point","coordinates":[130.86,-12.37]},"properties":{"ID":"2589","projectID":"214","name":"CDU Field Store","lastEditedDt":"8/27/2018 20:39:33","status":"1","description":"Site ID:  2589 <br>Landowner ID:  NA Last edited on:  8/27/2018 20:39:33"}},{"type":"Feature","geometry":{"type":"Point","coordinates":[130.86,-12.37]},"properties":{"ID":"2594","projectID":"214","name":"CDU Lab","lastEditedDt":"9/2/2018 22:16:25","status":"1","description":"Site ID:  2594 <br>Landowner ID:  NA Last edited on:  9/2/2018 22:16:25"}},{"type":"Feature","geometry":{"type":"Point","coordinates":[128.15,-15.53]},"properties":{"ID":"2619","projectID":"214","name":"CASA","lastEditedDt":"9/18/2018 20:43:44","status":"1","description":"Site ID:  2619 <br>Landowner ID:  NA Last edited on:  9/18/2018 20:43:44"}},{"type":"Feature","geometry":{"type":"Point","coordinates":[128.14,-15.52]},"properties":{"ID":"2620","projectID":"214","name":"Island","lastEditedDt":"9/18/2018 20:47:22","status":"1","description":"Site ID:  2620 <br>Landowner ID:  NA Last edited on:  9/18/2018 20:47:22"}},{"type":"Feature","geometry":{"type":"Point","coordinates":[128.11,-15.46]},"properties":{"ID":"2621","projectID":"214","name":"Powerline","lastEditedDt":"9/18/2018 20:52:16","status":"2","description":"Site ID:  2621 <br>Landowner ID:  NA Last edited on:  9/18/2018 20:52:16"}},{"type":"Feature","geometry":{"type":"Point","coordinates":[128.13,-15.47]},"properties":{"ID":"2622","projectID":"214","name":"WaterTower","lastEditedDt":"9/18/2018 20:56:09","status":"1","description":"Site ID:  2622 <br>Landowner ID:  NA Last edited on:  9/18/2018 20:56:09"}},{"type":"Feature","geometry":{"type":"Point","coordinates":[128.1,-15.47]},"properties":{"ID":"2623","projectID":"214","name":"Quarry","lastEditedDt":"9/18/2018 21:00:56","status":"1","description":"Site ID:  2623 <br>Landowner ID:  NA Last edited on:  9/18/2018 21:00:56"}},{"type":"Feature","geometry":{"type":"Point","coordinates":[128.11,-15.47]},"properties":{"ID":"2624","projectID":"214","name":"Caravan","lastEditedDt":"9/18/2018 21:04:56","status":"1","description":"Site ID:  2624 <br>Landowner ID:  NA Last edited on:  9/18/2018 21:04:56"}},{"type":"Feature","geometry":{"type":"Point","coordinates":[128.13,-15.47]},"properties":{"ID":"2625","projectID":"214","name":"WaterTower","lastEditedDt":"9/18/2018 23:35:07","status":"1","description":"Site ID:  2625 <br>Landowner ID:  NA Last edited on:  9/18/2018 23:35:07"}}]}