{
"data":[
  {
    "ID": 2145,
    "projectID": 78,
    "landOwnerID": 2861,
    "name": "Barachois (Cap Bimet",
    "latitude": 46.23,
    "longitude": -64.43,
    "lastEditedDt": "7/30/2019 8:44:25"
  },
  {
    "ID": 2146,
    "projectID": 78,
    "landOwnerID": 2864,
    "name": "Bouctouche",
    "latitude": 46.46,
    "longitude": -64.65,
    "lastEditedDt": "7/30/2019 8:44:25"
  },
  {
    "ID": 2147,
    "projectID": 78,
    "landOwnerID": 2864,
    "name": "Bouctouche",
    "latitude": 46.46,
    "longitude": -64.65,
    "lastEditedDt": "7/30/2019 8:44:25"
  },
  {
    "ID": 2148,
    "projectID": 78,
    "landOwnerID": 2876,
    "name": "Cape Jourimain",
    "latitude": 46.16,
    "longitude": -63.82,
    "lastEditedDt": "7/30/2019 8:44:25"
  },
  {
    "ID": 2149,
    "projectID": 78,
    "landOwnerID": 2873,
    "name": "Complexe des Deux Ri",
    "latitude": 47.51,
    "longitude": -64.89,
    "lastEditedDt": "7/30/2019 8:44:25"
  },
  {
    "ID": 2150,
    "projectID": 78,
    "landOwnerID": 2873,
    "name": "Deux Rivieres",
    "latitude": 47.51,
    "longitude": -64.89,
    "lastEditedDt": "7/30/2019 8:44:25"
  },
  {
    "ID": 2151,
    "projectID": 78,
    "landOwnerID": 2861,
    "name": "Escuminac",
    "latitude": 47.06,
    "longitude": -64.81,
    "lastEditedDt": "7/30/2019 8:44:25"
  },
  {
    "ID": 2152,
    "projectID": 78,
    "landOwnerID": 2861,
    "name": "Escuminac Pt",
    "latitude": 47.06,
    "longitude": -64.81,
    "lastEditedDt": "7/30/2019 8:44:25"
  },
  {
    "ID": 2153,
    "projectID": 78,
    "landOwnerID": 2861,
    "name": "Inkerman ",
    "latitude": 47.67,
    "longitude": -64.76,
    "lastEditedDt": "7/30/2019 8:44:25"
  },
  {
    "ID": 2154,
    "projectID": 78,
    "landOwnerID": 2879,
    "name": "Johnson's Mills",
    "latitude": 45.83,
    "longitude": -64.51,
    "lastEditedDt": "7/30/2019 8:44:25"
  },
  {
    "ID": 2155,
    "projectID": 78,
    "landOwnerID": 2881,
    "name": "Kellys Beach - Kouch",
    "latitude": 46.82,
    "longitude": -64.91,
    "lastEditedDt": "7/30/2019 8:44:25"
  },
  {
    "ID": 2156,
    "projectID": 78,
    "landOwnerID": 2868,
    "name": "Lameque 1 - Petit Sh",
    "latitude": 47.87,
    "longitude": -64.59,
    "lastEditedDt": "7/30/2019 8:44:25"
  },
  {
    "ID": 2157,
    "projectID": 78,
    "landOwnerID": 2868,
    "name": "Lameque 1 Petit Ship",
    "latitude": 47.87,
    "longitude": -64.59,
    "lastEditedDt": "7/30/2019 8:44:25"
  },
  {
    "ID": 2158,
    "projectID": 78,
    "landOwnerID": 2869,
    "name": "Lameque 2 - Petite R",
    "latitude": 47.56,
    "longitude": -64.96,
    "lastEditedDt": "7/30/2019 8:44:25"
  },
  {
    "ID": 2159,
    "projectID": 78,
    "landOwnerID": 2869,
    "name": "Lameque 2 Petite Riv",
    "latitude": 47.85,
    "longitude": -64.64,
    "lastEditedDt": "7/22/2019 12:25:40"
  },
  {
    "ID": 2160,
    "projectID": 78,
    "landOwnerID": 2862,
    "name": "Lord and Foy ",
    "latitude": 47.48,
    "longitude": -65.24,
    "lastEditedDt": "6/18/2019 10:24:35"
  },
  {
    "ID": 2161,
    "projectID": 78,
    "landOwnerID": 2882,
    "name": "Maisonette",
    "latitude": 47.81,
    "longitude": -65,
    "lastEditedDt": "6/18/2019 10:24:35"
  },
  {
    "ID": 2162,
    "projectID": 78,
    "landOwnerID": "NA",
    "name": "Mal Bay South ",
    "latitude": 47.94,
    "longitude": -64.48,
    "lastEditedDt": "6/18/2019 10:24:35"
  },
  {
    "ID": 2163,
    "projectID": 78,
    "landOwnerID": 2861,
    "name": "Miscou - Mal Bay Nor",
    "latitude": 47.99,
    "longitude": -64.48,
    "lastEditedDt": "6/18/2019 10:24:35"
  },
  {
    "ID": 2164,
    "projectID": 78,
    "landOwnerID": 2865,
    "name": "Miscou - Wilson Poin",
    "latitude": 47.93,
    "longitude": -64.49,
    "lastEditedDt": "6/18/2019 10:24:35"
  },
  {
    "ID": 2165,
    "projectID": 78,
    "landOwnerID": 2880,
    "name": "Miscou Berryfield (R",
    "latitude": 47.92,
    "longitude": -64.58,
    "lastEditedDt": "6/18/2019 10:24:35"
  },
  {
    "ID": 2166,
    "projectID": 78,
    "landOwnerID": 2861,
    "name": "Neguac",
    "latitude": 47.27,
    "longitude": -65.01,
    "lastEditedDt": "6/18/2019 10:24:35"
  },
  {
    "ID": 2167,
    "projectID": 78,
    "landOwnerID": 2861,
    "name": "Neguac",
    "latitude": 47.27,
    "longitude": -64.96,
    "lastEditedDt": "6/18/2019 10:24:35"
  },
  {
    "ID": 2168,
    "projectID": 78,
    "landOwnerID": 2862,
    "name": "OFF - Val Doucet 2",
    "latitude": 47.57,
    "longitude": -65.32,
    "lastEditedDt": "6/18/2019 10:24:35"
  },
  {
    "ID": 2169,
    "projectID": 78,
    "landOwnerID": 2862,
    "name": "OFF Lord and Foy 1",
    "latitude": 47.5,
    "longitude": -65.23,
    "lastEditedDt": "6/18/2019 10:24:35"
  },
  {
    "ID": 2170,
    "projectID": 78,
    "landOwnerID": 2862,
    "name": "OFF Lord and Foy 2",
    "latitude": 47.47,
    "longitude": -65.2,
    "lastEditedDt": "6/18/2019 10:24:35"
  },
  {
    "ID": 2171,
    "projectID": 78,
    "landOwnerID": 2862,
    "name": "OFF Val Doucet 1",
    "latitude": 47.57,
    "longitude": -65.32,
    "lastEditedDt": "6/18/2019 10:24:35"
  },
  {
    "ID": 2172,
    "projectID": 78,
    "landOwnerID": 2862,
    "name": "OFF_champ losier",
    "latitude": 47.56,
    "longitude": -64.96,
    "lastEditedDt": "6/18/2019 10:24:36"
  },
  {
    "ID": 2173,
    "projectID": 78,
    "landOwnerID": 2863,
    "name": "PEINP",
    "latitude": 46.42,
    "longitude": -63.18,
    "lastEditedDt": "6/18/2019 10:24:36"
  },
  {
    "ID": 2174,
    "projectID": 78,
    "landOwnerID": 2863,
    "name": "PEINP",
    "latitude": 46.42,
    "longitude": -63.18,
    "lastEditedDt": "6/18/2019 10:24:36"
  },
  {
    "ID": 2175,
    "projectID": 78,
    "landOwnerID": 2874,
    "name": "Pokesudie",
    "latitude": 47.8,
    "longitude": -64.76,
    "lastEditedDt": "6/18/2019 10:24:37"
  },
  {
    "ID": 2176,
    "projectID": 78,
    "landOwnerID": 2874,
    "name": "Pokesudie",
    "latitude": 47.8,
    "longitude": -64.76,
    "lastEditedDt": "6/18/2019 10:24:37"
  },
  {
    "ID": 2177,
    "projectID": 78,
    "landOwnerID": 2861,
    "name": "Tabusintac",
    "latitude": 47.33,
    "longitude": -64.96,
    "lastEditedDt": "6/18/2019 10:24:37"
  },
  {
    "ID": 2178,
    "projectID": 78,
    "landOwnerID": 2861,
    "name": "Tabusintac",
    "latitude": 47.33,
    "longitude": -64.96,
    "lastEditedDt": "6/18/2019 10:24:37"
  },
  {
    "ID": 2179,
    "projectID": 78,
    "landOwnerID": 2873,
    "name": "Tracadie-Sheila",
    "latitude": 47.51,
    "longitude": -64.89,
    "lastEditedDt": "6/18/2019 10:24:37"
  },
  {
    "ID": 2180,
    "projectID": 78,
    "landOwnerID": 2862,
    "name": "Val Doucet",
    "latitude": 47.59,
    "longitude": -65.3,
    "lastEditedDt": "6/18/2019 10:24:37"
  },
  {
    "ID": 2181,
    "projectID": 78,
    "landOwnerID": 2865,
    "name": "Wilson Point",
    "latitude": 47.93,
    "longitude": -64.49,
    "lastEditedDt": "6/18/2019 10:24:37"
  },
  {
    "ID": 2182,
    "projectID": 78,
    "landOwnerID": 2865,
    "name": "Wilson Point",
    "latitude": 47.93,
    "longitude": -64.49,
    "lastEditedDt": "6/18/2019 10:24:37"
  },
  {
    "ID": 2542,
    "projectID": 78,
    "landOwnerID": 18518,
    "name": "Cavendish",
    "latitude": 46.5,
    "longitude": -63.41,
    "lastEditedDt": "7/30/2019 8:44:25"
  },
  {
    "ID": 2543,
    "projectID": 78,
    "landOwnerID": 18520,
    "name": "Hopewell",
    "latitude": 45.81,
    "longitude": -64.58,
    "lastEditedDt": "7/30/2019 8:44:25"
  },
  {
    "ID": 2544,
    "projectID": 78,
    "landOwnerID": 2876,
    "name": "Marys Point",
    "latitude": 45.72,
    "longitude": -64.66,
    "lastEditedDt": "6/18/2019 10:24:35"
  },
  {
    "ID": 2545,
    "projectID": 78,
    "landOwnerID": 2879,
    "name": "Nappan",
    "latitude": 45.79,
    "longitude": -64.17,
    "lastEditedDt": "6/18/2019 10:24:35"
  },
  {
    "ID": 2546,
    "projectID": 78,
    "landOwnerID": 18522,
    "name": "Linden",
    "latitude": 45.88,
    "longitude": -63.82,
    "lastEditedDt": "6/18/2019 10:24:35"
  },
  {
    "ID": 2547,
    "projectID": 78,
    "landOwnerID": 2876,
    "name": "Tintamarre",
    "latitude": 45.94,
    "longitude": -64.25,
    "lastEditedDt": "6/18/2019 10:24:37"
  },
  {
    "ID": 2548,
    "projectID": 78,
    "landOwnerID": "NA",
    "name": "Johnstons Point",
    "latitude": 46.18,
    "longitude": -64.11,
    "lastEditedDt": "7/30/2019 8:44:25"
  },
  {
    "ID": 2551,
    "projectID": 78,
    "landOwnerID": 2861,
    "name": "Baie Verte",
    "latitude": 46,
    "longitude": -64.08,
    "lastEditedDt": "7/30/2019 8:44:25"
  },
  {
    "ID": 2813,
    "projectID": 78,
    "landOwnerID": 19217,
    "name": "Pugwash",
    "latitude": 45.86,
    "longitude": -63.71,
    "lastEditedDt": "7/18/2019 10:03:09"
  },
  {
    "ID": 2818,
    "projectID": 78,
    "landOwnerID": "NA",
    "name": "Cape George",
    "latitude": 45.87,
    "longitude": -61.9,
    "lastEditedDt": "7/30/2019 8:44:25"
  },
  {
    "ID": 2828,
    "projectID": 78,
    "landOwnerID": "NA",
    "name": "Big Island",
    "latitude": 45.64,
    "longitude": -62.45,
    "lastEditedDt": "7/30/2019 8:44:25"
  },
  {
    "ID": 2829,
    "projectID": 78,
    "landOwnerID": "NA",
    "name": "Tatamagouche",
    "latitude": 45.75,
    "longitude": -63.21,
    "lastEditedDt": "7/30/2019 8:49:53"
  },
  {
    "ID": 2868,
    "projectID": 78,
    "landOwnerID": "NA",
    "name": "Brule Point",
    "latitude": 45.75,
    "longitude": -63.21,
    "lastEditedDt": "8/16/2019 13:05:44"
  },
  {
    "ID": 2869,
    "projectID": 78,
    "landOwnerID": "NA",
    "name": "Wallace",
    "latitude": 45.81,
    "longitude": -63.4,
    "lastEditedDt": "8/16/2019 13:09:24"
  },
  {
    "ID": 2951,
    "projectID": 78,
    "landOwnerID": "NA",
    "name": "Pictou",
    "latitude": 45.67,
    "longitude": -62.7,
    "lastEditedDt": "12/2/2019 14:18:51"
  },
  {
    "ID": 2963,
    "projectID": 78,
    "landOwnerID": "NA",
    "name": "Sackville Apt",
    "latitude": 45.89,
    "longitude": -64.37,
    "lastEditedDt": "1/10/2020 9:51:04"
  }
], "columns":[
  {
    "data": "ID",
    "name": "ID"
  },
  {
    "data": "projectID",
    "name": "Project ID"
  },
  {
    "data": "landOwnerID",
    "name": "Land Owner ID"
  },
  {
    "data": "name",
    "name": "Name"
  },
  {
    "data": "latitude",
    "name": "Latitude"
  },
  {
    "data": "longitude",
    "name": "Longitude"
  },
  {
    "data": "lastEditedDt",
    "name": "Last Edited Date"
  }
]
}
