{"type":"FeatureCollection","features":[{"type":"Feature","geometry":{"type":"Point","coordinates":[-143.36,62.41]},"properties":{"ID":"2105","projectID":"75","name":"Tanada Lake","lastEditedDt":"8/14/2017 17:26:36","status":"1","description":"Site ID:  2105 <br>Landowner ID:  NA Last edited on:  8/14/2017 17:26:36"}},{"type":"Feature","geometry":{"type":"Point","coordinates":[-143.68,62.89]},"properties":{"ID":"2106","projectID":"75","landOwnerID":"448","name":"Ruby's","lastEditedDt":"8/14/2017 17:26:36","status":"1","description":"Site ID:  2106 <br>Landowner ID:  448 Last edited on:  8/14/2017 17:26:36"}},{"type":"Feature","geometry":{"type":"Point","coordinates":[-144.35,61.52]},"properties":{"ID":"2107","projectID":"75","landOwnerID":"449","name":"Chitina","lastEditedDt":"8/14/2017 17:26:36","status":"1","description":"Site ID:  2107 <br>Landowner ID:  449 Last edited on:  8/14/2017 17:26:36"}},{"type":"Feature","geometry":{"type":"Point","coordinates":[-143.67,62.88]},"properties":{"ID":"2108","projectID":"75","landOwnerID":"449","name":"Mentasta Lakeside","lastEditedDt":"8/14/2017 17:26:36","status":"1","description":"Site ID:  2108 <br>Landowner ID:  449 Last edited on:  8/14/2017 17:26:36"}},{"type":"Feature","geometry":{"type":"Point","coordinates":[-143.67,62.88]},"properties":{"ID":"2109","projectID":"75","landOwnerID":"449","name":"Mentasta Lodge","lastEditedDt":"8/14/2017 17:26:36","status":"1","description":"Site ID:  2109 <br>Landowner ID:  449 Last edited on:  8/14/2017 17:26:36"}},{"type":"Feature","geometry":{"type":"Point","coordinates":[-144.6,62.6]},"properties":{"ID":"2110","projectID":"75","landOwnerID":"450","name":"Chistochina","lastEditedDt":"8/14/2017 17:26:36","status":"1","description":"Site ID:  2110 <br>Landowner ID:  450 Last edited on:  8/14/2017 17:26:36"}},{"type":"Feature","geometry":{"type":"Point","coordinates":[-143.15,62.5]},"properties":{"ID":"2111","projectID":"75","landOwnerID":"451","name":"Nabesna","lastEditedDt":"8/14/2017 17:26:36","status":"1","description":"Site ID:  2111 <br>Landowner ID:  451 Last edited on:  8/14/2017 17:26:36"}},{"type":"Feature","geometry":{"type":"Point","coordinates":[-145.37,62.02]},"properties":{"ID":"2112","projectID":"75","landOwnerID":"451","name":"Park HQ","lastEditedDt":"8/14/2017 17:26:36","status":"1","description":"Site ID:  2112 <br>Landowner ID:  451 Last edited on:  8/14/2017 17:26:36"}},{"type":"Feature","geometry":{"type":"Point","coordinates":[-144.69,61.67]},"properties":{"ID":"2113","projectID":"75","landOwnerID":"452","name":"Kenny Lake","lastEditedDt":"8/14/2017 17:26:36","status":"1","description":"Site ID:  2113 <br>Landowner ID:  452 Last edited on:  8/14/2017 17:26:36"}},{"type":"Feature","geometry":{"type":"Point","coordinates":[-143.87,62.72]},"properties":{"ID":"2114","projectID":"75","landOwnerID":"467","name":"Woodhams","lastEditedDt":"8/14/2017 17:26:36","status":"1","description":"Site ID:  2114 <br>Landowner ID:  467 Last edited on:  8/14/2017 17:26:36"}}]}