{"type":"FeatureCollection","features":[{"type":"Feature","geometry":{"type":"Point","coordinates":[-120.32,50.38]},"properties":{"ID":"2803","projectID":"280","name":"Stump Lake","lastEditedDt":"7/17/2019 20:14:00","status":"2","description":"Site ID:  2803 <br>Landowner ID:  NA Last edited on:  7/17/2019 20:14:00"}},{"type":"Feature","geometry":{"type":"Point","coordinates":[-120.36,50.12]},"properties":{"ID":"2804","projectID":"280","name":"Douglas Lake","lastEditedDt":"7/17/2019 20:27:46","status":"2","description":"Site ID:  2804 <br>Landowner ID:  NA Last edited on:  7/17/2019 20:27:46"}},{"type":"Feature","geometry":{"type":"Point","coordinates":[-120.76,50.08]},"properties":{"ID":"2805","projectID":"280","name":"Merritt","lastEditedDt":"7/17/2019 20:30:51","status":"2","description":"Site ID:  2805 <br>Landowner ID:  NA Last edited on:  7/17/2019 20:30:51"}},{"type":"Feature","geometry":{"type":"Point","coordinates":[-120.31,50.6]},"properties":{"ID":"2806","projectID":"280","name":"Kamloops","lastEditedDt":"7/17/2019 21:27:32","status":"2","description":"Site ID:  2806 <br>Landowner ID:  NA Last edited on:  7/17/2019 21:27:32"}},{"type":"Feature","geometry":{"type":"Point","coordinates":[-120.19,48.88]},"properties":{"ID":"2807","projectID":"280","name":"Coldwater","lastEditedDt":"7/17/2019 21:52:10","status":"2","description":"Site ID:  2807 <br>Landowner ID:  NA Last edited on:  7/17/2019 21:52:10"}},{"type":"Feature","geometry":{"type":"Point","coordinates":[-121,49.64]},"properties":{"ID":"2808","projectID":"280","name":"Britton Creek","lastEditedDt":"7/17/2019 21:59:00","status":"2","description":"Site ID:  2808 <br>Landowner ID:  NA Last edited on:  7/17/2019 21:59:00"}},{"type":"Feature","geometry":{"type":"Point","coordinates":[-121.37,49.38]},"properties":{"ID":"2809","projectID":"280","name":"Othello","lastEditedDt":"7/17/2019 22:04:24","status":"2","description":"Site ID:  2809 <br>Landowner ID:  NA Last edited on:  7/17/2019 22:04:24"}},{"type":"Feature","geometry":{"type":"Point","coordinates":[-121.62,49.32]},"properties":{"ID":"2810","projectID":"280","name":"Laidlaw","lastEditedDt":"7/17/2019 22:08:00","status":"2","description":"Site ID:  2810 <br>Landowner ID:  NA Last edited on:  7/17/2019 22:08:00"}},{"type":"Feature","geometry":{"type":"Point","coordinates":[-121.17,49.57]},"properties":{"ID":"2811","projectID":"280","name":"Box Canyon","lastEditedDt":"7/17/2019 22:34:09","status":"2","description":"Site ID:  2811 <br>Landowner ID:  NA Last edited on:  7/17/2019 22:34:09"}},{"type":"Feature","geometry":{"type":"Point","coordinates":[-121.31,49.38]},"properties":{"ID":"2812","projectID":"280","name":"Peers","lastEditedDt":"7/17/2019 22:43:05","status":"1","description":"Site ID:  2812 <br>Landowner ID:  NA Last edited on:  7/17/2019 22:43:05"}},{"type":"Feature","geometry":{"type":"Point","coordinates":[-121.92,49.17]},"properties":{"ID":"2850","projectID":"280","name":"FG_Leary_Chilliwack","lastEditedDt":"8/7/2019 23:36:50","status":"2","description":"Site ID:  2850 <br>Landowner ID:  NA Last edited on:  8/7/2019 23:36:50"}},{"type":"Feature","geometry":{"type":"Point","coordinates":[122.71,49.15]},"properties":{"ID":"2859","projectID":"280","name":"Surrey","lastEditedDt":"8/12/2019 0:32:13","status":"2","description":"Site ID:  2859 <br>Landowner ID:  NA Last edited on:  8/12/2019 0:32:13"}},{"type":"Feature","geometry":{"type":"Point","coordinates":[-122.26,49.02]},"properties":{"ID":"2871","projectID":"280","name":"Abbotsford","lastEditedDt":"8/17/2019 20:02:05","status":"2","description":"Site ID:  2871 <br>Landowner ID:  NA Last edited on:  8/17/2019 20:02:05"}},{"type":"Feature","geometry":{"type":"Point","coordinates":[-121.24,49.49]},"properties":{"ID":"2996","projectID":"280","name":"Carolin_Mine","lastEditedDt":"3/21/2020 17:05:56","status":"2","description":"Site ID:  2996 <br>Landowner ID:  NA Last edited on:  3/21/2020 17:05:56"}},{"type":"Feature","geometry":{"type":"Point","coordinates":[-120.31,50.79]},"properties":{"ID":"2997","projectID":"280","name":"Rayleigh_Elementary_School","lastEditedDt":"3/22/2020 1:26:23","status":"2","description":"Site ID:  2997 <br>Landowner ID:  NA Last edited on:  3/22/2020 1:26:23"}}]}