{"type":"FeatureCollection","features":[{"type":"Feature","geometry":{"type":"Point","coordinates":[-64.18,45.85]},"properties":{"ID":"1788","projectID":"26","name":"AMMAR","lastEditedDt":"8/14/2017 17:26:36","status":"1","description":"Site ID:  1788 <br>Landowner ID:  NA Last edited on:  8/14/2017 17:26:36"}},{"type":"Feature","geometry":{"type":"Point","coordinates":[-64.27,45.77]},"properties":{"ID":"1789","projectID":"26","name":"AMPNT","lastEditedDt":"8/14/2017 17:26:36","status":"1","description":"Site ID:  1789 <br>Landowner ID:  NA Last edited on:  8/14/2017 17:26:36"}},{"type":"Feature","geometry":{"type":"Point","coordinates":[-64.34,45.9]},"properties":{"ID":"1790","projectID":"26","name":"Bridge St Sackville ","lastEditedDt":"8/14/2017 17:26:36","status":"1","description":"Site ID:  1790 <br>Landowner ID:  NA Last edited on:  8/14/2017 17:26:36"}},{"type":"Feature","geometry":{"type":"Point","coordinates":[-64.34,45.89]},"properties":{"ID":"1791","projectID":"26","name":"COLONY","lastEditedDt":"8/14/2017 17:26:36","status":"1","description":"Site ID:  1791 <br>Landowner ID:  NA Last edited on:  8/14/2017 17:26:36"}},{"type":"Feature","geometry":{"type":"Point","coordinates":[-64.34,45.89]},"properties":{"ID":"1792","projectID":"26","name":"COLONY1 ","lastEditedDt":"8/14/2017 17:26:36","status":"1","description":"Site ID:  1792 <br>Landowner ID:  NA Last edited on:  8/14/2017 17:26:36"}},{"type":"Feature","geometry":{"type":"Point","coordinates":[-64.33,45.9]},"properties":{"ID":"1793","projectID":"26","name":"COLONY2","lastEditedDt":"8/14/2017 17:26:36","status":"1","description":"Site ID:  1793 <br>Landowner ID:  NA Last edited on:  8/14/2017 17:26:36"}},{"type":"Feature","geometry":{"type":"Point","coordinates":[-64.33,45.89]},"properties":{"ID":"1794","projectID":"26","name":"DIKES","lastEditedDt":"8/14/2017 17:26:36","status":"1","description":"Site ID:  1794 <br>Landowner ID:  NA Last edited on:  8/14/2017 17:26:36"}},{"type":"Feature","geometry":{"type":"Point","coordinates":[-64.22,45.84]},"properties":{"ID":"1795","projectID":"26","name":"Eddie rd. ","lastEditedDt":"8/14/2017 17:26:36","status":"1","description":"Site ID:  1795 <br>Landowner ID:  NA Last edited on:  8/14/2017 17:26:36"}},{"type":"Feature","geometry":{"type":"Point","coordinates":[-64.22,45.84]},"properties":{"ID":"1796","projectID":"26","name":"EDDY","lastEditedDt":"8/14/2017 17:26:36","status":"1","description":"Site ID:  1796 <br>Landowner ID:  NA Last edited on:  8/14/2017 17:26:36"}},{"type":"Feature","geometry":{"type":"Point","coordinates":[-64.33,45.94]},"properties":{"ID":"1797","projectID":"26","name":"Fork Field Farms","lastEditedDt":"8/14/2017 17:26:36","status":"1","description":"Site ID:  1797 <br>Landowner ID:  NA Last edited on:  8/14/2017 17:26:36"}},{"type":"Feature","geometry":{"type":"Point","coordinates":[-64.36,45.86]},"properties":{"ID":"1798","projectID":"26","name":"Hospital Loop Road","lastEditedDt":"8/14/2017 17:26:36","status":"1","description":"Site ID:  1798 <br>Landowner ID:  NA Last edited on:  8/14/2017 17:26:36"}},{"type":"Feature","geometry":{"type":"Point","coordinates":[-64.35,45.9]},"properties":{"ID":"1799","projectID":"26","name":"HWY","lastEditedDt":"8/14/2017 17:26:36","status":"1","description":"Site ID:  1799 <br>Landowner ID:  NA Last edited on:  8/14/2017 17:26:36"}},{"type":"Feature","geometry":{"type":"Point","coordinates":[-64.33,45.9]},"properties":{"ID":"1800","projectID":"26","name":"LOWERW","lastEditedDt":"8/14/2017 17:26:36","status":"1","description":"Site ID:  1800 <br>Landowner ID:  NA Last edited on:  8/14/2017 17:26:36"}},{"type":"Feature","geometry":{"type":"Point","coordinates":[-64.18,45.85]},"properties":{"ID":"1801","projectID":"26","name":"Marsh Landings","lastEditedDt":"8/14/2017 17:26:36","status":"1","description":"Site ID:  1801 <br>Landowner ID:  NA Last edited on:  8/14/2017 17:26:36"}},{"type":"Feature","geometry":{"type":"Point","coordinates":[-64.23,45.89]},"properties":{"ID":"1802","projectID":"26","name":"MISSA","lastEditedDt":"8/14/2017 17:26:36","status":"1","description":"Site ID:  1802 <br>Landowner ID:  NA Last edited on:  8/14/2017 17:26:36"}},{"type":"Feature","geometry":{"type":"Point","coordinates":[-64.32,45.89]},"properties":{"ID":"1803","projectID":"26","name":"RCI Sackville","lastEditedDt":"8/14/2017 17:26:36","status":"1","description":"Site ID:  1803 <br>Landowner ID:  NA Last edited on:  8/14/2017 17:26:36"}},{"type":"Feature","geometry":{"type":"Point","coordinates":[-64.32,45.89]},"properties":{"ID":"1804","projectID":"26","name":"RCI Sackville Engine","lastEditedDt":"8/14/2017 17:26:36","status":"1","description":"Site ID:  1804 <br>Landowner ID:  NA Last edited on:  8/14/2017 17:26:36"}},{"type":"Feature","geometry":{"type":"Point","coordinates":[-64.23,45.92]},"properties":{"ID":"1805","projectID":"26","name":"Richard's Farm","lastEditedDt":"8/14/2017 17:26:36","status":"1","description":"Site ID:  1805 <br>Landowner ID:  NA Last edited on:  8/14/2017 17:26:36"}},{"type":"Feature","geometry":{"type":"Point","coordinates":[-64.35,45.89]},"properties":{"ID":"1806","projectID":"26","name":"Sackville Eng","lastEditedDt":"8/14/2017 17:26:36","status":"1","description":"Site ID:  1806 <br>Landowner ID:  NA Last edited on:  8/14/2017 17:26:36"}},{"type":"Feature","geometry":{"type":"Point","coordinates":[-64.33,45.91]},"properties":{"ID":"1809","projectID":"26","name":"SCHOOL","lastEditedDt":"8/14/2017 17:26:36","status":"1","description":"Site ID:  1809 <br>Landowner ID:  NA Last edited on:  8/14/2017 17:26:36"}},{"type":"Feature","geometry":{"type":"Point","coordinates":[-64.35,45.89]},"properties":{"ID":"1810","projectID":"26","name":"SE","lastEditedDt":"8/14/2017 17:26:36","status":"1","description":"Site ID:  1810 <br>Landowner ID:  NA Last edited on:  8/14/2017 17:26:36"}},{"type":"Feature","geometry":{"type":"Point","coordinates":[-64.31,45.93]},"properties":{"ID":"1811","projectID":"26","name":"TINTA","lastEditedDt":"8/14/2017 17:26:36","status":"1","description":"Site ID:  1811 <br>Landowner ID:  NA Last edited on:  8/14/2017 17:26:36"}},{"type":"Feature","geometry":{"type":"Point","coordinates":[-64.3,45.9]},"properties":{"ID":"1812","projectID":"26","name":"UPTAN","lastEditedDt":"8/14/2017 17:26:36","status":"1","description":"Site ID:  1812 <br>Landowner ID:  NA Last edited on:  8/14/2017 17:26:36"}},{"type":"Feature","geometry":{"type":"Point","coordinates":[-64.34,45.87]},"properties":{"ID":"1813","projectID":"26","name":"WCOCK","lastEditedDt":"8/14/2017 17:26:36","status":"1","description":"Site ID:  1813 <br>Landowner ID:  NA Last edited on:  8/14/2017 17:26:36"}}]}