{"type":"FeatureCollection","features":[{"type":"Feature","geometry":{"type":"Point","coordinates":[8.65,54.8]},"properties":{"ID":"2272","projectID":"123","name":"01_Emmelsbüll","lastEditedDt":"10/24/2018 5:42:41","status":"2","description":"Site ID:  2272 <br>Landowner ID:  NA Last edited on:  10/24/2018 5:42:41"}},{"type":"Feature","geometry":{"type":"Point","coordinates":[8.7,54.72]},"properties":{"ID":"2273","projectID":"123","name":"02_Dagebüll","lastEditedDt":"10/24/2018 5:42:41","status":"2","description":"Site ID:  2273 <br>Landowner ID:  NA Last edited on:  10/24/2018 5:42:41"}},{"type":"Feature","geometry":{"type":"Point","coordinates":[8.92,54.49]},"properties":{"ID":"2274","projectID":"123","name":"04_Nordstrand","lastEditedDt":"10/24/2018 5:42:41","status":"2","description":"Site ID:  2274 <br>Landowner ID:  NA Last edited on:  10/24/2018 5:42:41"}},{"type":"Feature","geometry":{"type":"Point","coordinates":[8.81,54.4]},"properties":{"ID":"2275","projectID":"123","name":"05_Norderheverkoog","lastEditedDt":"10/24/2018 5:42:41","status":"2","description":"Site ID:  2275 <br>Landowner ID:  NA Last edited on:  10/24/2018 5:42:41"}},{"type":"Feature","geometry":{"type":"Point","coordinates":[8.67,54.34]},"properties":{"ID":"2276","projectID":"123","name":"06_Tümlauer Koog","lastEditedDt":"10/24/2018 5:42:41","status":"2","description":"Site ID:  2276 <br>Landowner ID:  NA Last edited on:  10/24/2018 5:42:41"}},{"type":"Feature","geometry":{"type":"Point","coordinates":[8.87,54.13]},"properties":{"ID":"2277","projectID":"123","name":"08_Büsum","lastEditedDt":"10/24/2018 5:42:41","status":"2","description":"Site ID:  2277 <br>Landowner ID:  NA Last edited on:  10/24/2018 5:42:41"}},{"type":"Feature","geometry":{"type":"Point","coordinates":[9.03,53.82]},"properties":{"ID":"2278","projectID":"123","name":"11_Natureum Niederelbe","lastEditedDt":"10/24/2018 5:42:41","status":"2","description":"Site ID:  2278 <br>Landowner ID:  NA Last edited on:  10/24/2018 5:42:41"}},{"type":"Feature","geometry":{"type":"Point","coordinates":[8.55,53.76]},"properties":{"ID":"2279","projectID":"123","name":"15_Cappel-Neufeld","lastEditedDt":"10/24/2018 5:42:41","status":"2","description":"Site ID:  2279 <br>Landowner ID:  NA Last edited on:  10/24/2018 5:42:41"}},{"type":"Feature","geometry":{"type":"Point","coordinates":[8.57,53.54]},"properties":{"ID":"2280","projectID":"123","name":"16_Bremerhaven","lastEditedDt":"10/24/2018 5:42:41","status":"2","description":"Site ID:  2280 <br>Landowner ID:  NA Last edited on:  10/24/2018 5:42:41"}},{"type":"Feature","geometry":{"type":"Point","coordinates":[8.09,53.43]},"properties":{"ID":"2281","projectID":"123","name":"19_Petershörn","lastEditedDt":"10/24/2018 5:42:41","status":"2","description":"Site ID:  2281 <br>Landowner ID:  NA Last edited on:  10/24/2018 5:42:41"}},{"type":"Feature","geometry":{"type":"Point","coordinates":[8.09,53.43]},"properties":{"ID":"2282","projectID":"123","name":"20_Wilhelmshaven","lastEditedDt":"10/24/2018 5:42:41","status":"2","description":"Site ID:  2282 <br>Landowner ID:  NA Last edited on:  10/24/2018 5:42:41"}},{"type":"Feature","geometry":{"type":"Point","coordinates":[8.08,53.54]},"properties":{"ID":"2283","projectID":"123","name":"20_Wilhelmshaven","lastEditedDt":"10/24/2018 5:42:41","status":"1","description":"Site ID:  2283 <br>Landowner ID:  NA Last edited on:  10/24/2018 5:42:41"}},{"type":"Feature","geometry":{"type":"Point","coordinates":[8.02,53.67]},"properties":{"ID":"2284","projectID":"123","name":"21_Wangerland-Schöpfwerk","lastEditedDt":"12/13/2018 8:34:47","status":"2","description":"Site ID:  2284 <br>Landowner ID:  NA Last edited on:  12/13/2018 8:34:47"}},{"type":"Feature","geometry":{"type":"Point","coordinates":[8,53.69]},"properties":{"ID":"2285","projectID":"123","name":"22_Schillig","lastEditedDt":"12/13/2018 8:34:47","status":"2","description":"Site ID:  2285 <br>Landowner ID:  NA Last edited on:  12/13/2018 8:34:47"}},{"type":"Feature","geometry":{"type":"Point","coordinates":[7.75,53.69]},"properties":{"ID":"2286","projectID":"123","name":"23_Carolinensiel","lastEditedDt":"12/13/2018 8:34:47","status":"2","description":"Site ID:  2286 <br>Landowner ID:  NA Last edited on:  12/13/2018 8:34:47"}},{"type":"Feature","geometry":{"type":"Point","coordinates":[7.47,53.67]},"properties":{"ID":"2287","projectID":"123","name":"24_Dornumersiel","lastEditedDt":"12/13/2018 8:34:47","status":"1","description":"Site ID:  2287 <br>Landowner ID:  NA Last edited on:  12/13/2018 8:34:47"}},{"type":"Feature","geometry":{"type":"Point","coordinates":[7.47,53.67]},"properties":{"ID":"2288","projectID":"123","name":"24_Dornumersiel","lastEditedDt":"12/13/2018 8:34:47","status":"2","description":"Site ID:  2288 <br>Landowner ID:  NA Last edited on:  12/13/2018 8:34:47"}},{"type":"Feature","geometry":{"type":"Point","coordinates":[7.28,53.66]},"properties":{"ID":"2289","projectID":"123","name":"25_Hagermarsch","lastEditedDt":"12/13/2018 8:34:47","status":"2","description":"Site ID:  2289 <br>Landowner ID:  NA Last edited on:  12/13/2018 8:34:47"}},{"type":"Feature","geometry":{"type":"Point","coordinates":[7.03,53.38]},"properties":{"ID":"2290","projectID":"123","name":"27_Emden","lastEditedDt":"12/13/2018 8:34:47","status":"2","description":"Site ID:  2290 <br>Landowner ID:  NA Last edited on:  12/13/2018 8:34:47"}},{"type":"Feature","geometry":{"type":"Point","coordinates":[8.29,53.43]},"properties":{"ID":"2360","projectID":"123","name":"18_Sehestedt","lastEditedDt":"10/24/2018 5:42:41","status":"2","description":"Site ID:  2360 <br>Landowner ID:  NA Last edited on:  10/24/2018 5:42:41"}},{"type":"Feature","geometry":{"type":"Point","coordinates":[8.84,54.26]},"properties":{"ID":"2426","projectID":"123","name":"07_Eidersperrwerk","lastEditedDt":"10/24/2018 5:42:41","status":"2","description":"Site ID:  2426 <br>Landowner ID:  NA Last edited on:  10/24/2018 5:42:41"}},{"type":"Feature","geometry":{"type":"Point","coordinates":[8.87,54]},"properties":{"ID":"2427","projectID":"123","name":"09_Friedrichskoog","lastEditedDt":"10/24/2018 5:42:41","status":"2","description":"Site ID:  2427 <br>Landowner ID:  NA Last edited on:  10/24/2018 5:42:41"}},{"type":"Feature","geometry":{"type":"Point","coordinates":[8.94,53.91]},"properties":{"ID":"2428","projectID":"123","name":"10_Kaiser-Wilhelm-Koog","lastEditedDt":"10/24/2018 5:42:41","status":"2","description":"Site ID:  2428 <br>Landowner ID:  NA Last edited on:  10/24/2018 5:42:41"}},{"type":"Feature","geometry":{"type":"Point","coordinates":[7.1,53.56]},"properties":{"ID":"2429","projectID":"123","name":"26_Utlandshörn","lastEditedDt":"12/13/2018 8:34:47","status":"2","description":"Site ID:  2429 <br>Landowner ID:  NA Last edited on:  12/13/2018 8:34:47"}},{"type":"Feature","geometry":{"type":"Point","coordinates":[8.87,54.61]},"properties":{"ID":"2434","projectID":"123","name":"03_Sönke-Nissen-Koog","lastEditedDt":"10/24/2018 5:42:41","status":"2","description":"Site ID:  2434 <br>Landowner ID:  NA Last edited on:  10/24/2018 5:42:41"}},{"type":"Feature","geometry":{"type":"Point","coordinates":[9.41,53.71]},"properties":{"ID":"2462","projectID":"123","name":"13_Ruthenstrom","lastEditedDt":"10/24/2018 5:42:41","status":"2","description":"Site ID:  2462 <br>Landowner ID:  NA Last edited on:  10/24/2018 5:42:41"}},{"type":"Feature","geometry":{"type":"Point","coordinates":[9.29,53.82]},"properties":{"ID":"2482","projectID":"123","name":"12_Freiburg","lastEditedDt":"10/24/2018 5:42:41","status":"2","description":"Site ID:  2482 <br>Landowner ID:  NA Last edited on:  10/24/2018 5:42:41"}},{"type":"Feature","geometry":{"type":"Point","coordinates":[8.1,53.56]},"properties":{"ID":"2492","projectID":"123","name":"34_IfV","lastEditedDt":"12/13/2018 8:34:47","status":"1","description":"Site ID:  2492 <br>Landowner ID:  NA Last edited on:  12/13/2018 8:34:47"}},{"type":"Feature","geometry":{"type":"Point","coordinates":[6.58,54.01]},"properties":{"ID":"2532","projectID":"123","name":"61_FINO1","lastEditedDt":"12/13/2018 8:34:47","status":"2","description":"Site ID:  2532 <br>Landowner ID:  NA Last edited on:  12/13/2018 8:34:47"}},{"type":"Feature","geometry":{"type":"Point","coordinates":[7.15,55.19]},"properties":{"ID":"2533","projectID":"123","name":"63_FINO3","lastEditedDt":"12/13/2018 8:34:47","status":"2","description":"Site ID:  2533 <br>Landowner ID:  NA Last edited on:  12/13/2018 8:34:47"}},{"type":"Feature","geometry":{"type":"Point","coordinates":[8.14,53.58]},"properties":{"ID":"2604","projectID":"123","name":"28_Jade-Weser-Port","lastEditedDt":"12/13/2018 8:34:47","status":"2","description":"Site ID:  2604 <br>Landowner ID:  NA Last edited on:  12/13/2018 8:34:47"}},{"type":"Feature","geometry":{"type":"Point","coordinates":[8.69,53.87]},"properties":{"ID":"2647","projectID":"123","name":"14_Cuxhaven","lastEditedDt":"10/24/2018 5:42:41","status":"2","description":"Site ID:  2647 <br>Landowner ID:  NA Last edited on:  10/24/2018 5:42:41"}},{"type":"Feature","geometry":{"type":"Point","coordinates":[7.99,53.57]},"properties":{"ID":"2664","projectID":"123","name":"29_Sillenstede","lastEditedDt":"12/13/2018 8:34:47","status":"2","description":"Site ID:  2664 <br>Landowner ID:  NA Last edited on:  12/13/2018 8:34:47"}},{"type":"Feature","geometry":{"type":"Point","coordinates":[53.5,8.47]},"properties":{"ID":"2945","projectID":"123","name":"31_Nordenham","lastEditedDt":"11/21/2019 7:52:30","status":"2","description":"Site ID:  2945 <br>Landowner ID:  NA Last edited on:  11/21/2019 7:52:30"}},{"type":"Feature","geometry":{"type":"Point","coordinates":[8.72,54.02]},"properties":{"ID":"2954","projectID":"123","name":"40_Mittelplate","lastEditedDt":"12/6/2019 8:56:33","status":"2","description":"Site ID:  2954 <br>Landowner ID:  NA Last edited on:  12/6/2019 8:56:33"}},{"type":"Feature","geometry":{"type":"Point","coordinates":[8.35,53.59]},"properties":{"ID":"2978","projectID":"123","name":"17_Fedderwardersiel","lastEditedDt":"2/5/2020 10:12:47","status":"2","description":"Site ID:  2978 <br>Landowner ID:  NA Last edited on:  2/5/2020 10:12:47"}}]}