{"type":"FeatureCollection","features":[{"type":"Feature","geometry":{"type":"Point","coordinates":[-72.77,47.43]},"properties":{"ID":"2571","projectID":"195","name":"LaTuque-MFFP","lastEditedDt":"7/31/2018 12:04:54","status":"1","description":"Site ID:  2571 <br>Landowner ID:  NA Last edited on:  7/31/2018 12:04:54"}},{"type":"Feature","geometry":{"type":"Point","coordinates":[-72.78,47.44]},"properties":{"ID":"2572","projectID":"195","name":"LaTuque-Presbytere","lastEditedDt":"7/31/2018 12:06:25","status":"1","description":"Site ID:  2572 <br>Landowner ID:  NA Last edited on:  7/31/2018 12:06:25"}},{"type":"Feature","geometry":{"type":"Point","coordinates":[-72.79,47.43]},"properties":{"ID":"2573","projectID":"195","name":"LaTuque-Golf","lastEditedDt":"7/31/2018 12:08:08","status":"1","description":"Site ID:  2573 <br>Landowner ID:  NA Last edited on:  7/31/2018 12:08:08"}},{"type":"Feature","geometry":{"type":"Point","coordinates":[-72.29,47.64]},"properties":{"ID":"2574","projectID":"195","name":"LacEdouard-Grange","lastEditedDt":"7/31/2018 12:10:07","status":"1","description":"Site ID:  2574 <br>Landowner ID:  NA Last edited on:  7/31/2018 12:10:07"}},{"type":"Feature","geometry":{"type":"Point","coordinates":[-72.29,47.65]},"properties":{"ID":"2575","projectID":"195","name":"LacEdouard-Champs","lastEditedDt":"7/31/2018 12:12:08","status":"1","description":"Site ID:  2575 <br>Landowner ID:  NA Last edited on:  7/31/2018 12:12:08"}},{"type":"Feature","geometry":{"type":"Point","coordinates":[-72.5,47.65]},"properties":{"ID":"2763","projectID":"195","name":"Pourvoirie Oswego","lastEditedDt":"6/17/2019 19:02:46","status":"1","description":"Site ID:  2763 <br>Landowner ID:  NA Last edited on:  6/17/2019 19:02:46"}},{"type":"Feature","geometry":{"type":"Point","coordinates":[-72.36,47.61]},"properties":{"ID":"2764","projectID":"195","name":"Lac Édouard-1","lastEditedDt":"6/17/2019 19:12:41","status":"1","description":"Site ID:  2764 <br>Landowner ID:  NA Last edited on:  6/17/2019 19:12:41"}},{"type":"Feature","geometry":{"type":"Point","coordinates":[-72.37,47.53]},"properties":{"ID":"2765","projectID":"195","name":"Lac-Edouard-2","lastEditedDt":"6/17/2019 19:15:44","status":"1","description":"Site ID:  2765 <br>Landowner ID:  NA Last edited on:  6/17/2019 19:15:44"}},{"type":"Feature","geometry":{"type":"Point","coordinates":[-72.21,47.61]},"properties":{"ID":"2766","projectID":"195","name":"Triton","lastEditedDt":"6/17/2019 19:20:42","status":"1","description":"Site ID:  2766 <br>Landowner ID:  NA Last edited on:  6/17/2019 19:20:42"}},{"type":"Feature","geometry":{"type":"Point","coordinates":[-72.29,47.64]},"properties":{"ID":"2767","projectID":"195","name":"Chaufferie","lastEditedDt":"6/17/2019 19:31:33","status":"1","description":"Site ID:  2767 <br>Landowner ID:  NA Last edited on:  6/17/2019 19:31:33"}},{"type":"Feature","geometry":{"type":"Point","coordinates":[-72.46,47.56]},"properties":{"ID":"2801","projectID":"195","name":"Mobile-2","lastEditedDt":"7/15/2019 12:19:15","status":"1","description":"Site ID:  2801 <br>Landowner ID:  NA Last edited on:  7/15/2019 12:19:15"}}]}