{"type":"FeatureCollection","features":[{"type":"Feature","geometry":{"type":"Point","coordinates":[-66.69,44.62]},"properties":{"ID":"2236","projectID":"105","landOwnerID":"630","name":"White Head EC","lastEditedDt":"8/14/2017 17:26:36","status":"1","description":"Site ID:  2236 <br>Landowner ID:  630 Last edited on:  8/14/2017 17:26:36"}},{"type":"Feature","geometry":{"type":"Point","coordinates":[-66.31,44.28]},"properties":{"ID":"2237","projectID":"105","landOwnerID":"631","name":"Freeport","lastEditedDt":"8/14/2017 17:26:36","status":"1","description":"Site ID:  2237 <br>Landowner ID:  631 Last edited on:  8/14/2017 17:26:36"}},{"type":"Feature","geometry":{"type":"Point","coordinates":[-66.83,44.64]},"properties":{"ID":"2238","projectID":"105","landOwnerID":"632","name":"Days Catch","lastEditedDt":"8/14/2017 17:26:36","status":"1","description":"Site ID:  2238 <br>Landowner ID:  632 Last edited on:  8/14/2017 17:26:36"}},{"type":"Feature","geometry":{"type":"Point","coordinates":[-66.34,44.25]},"properties":{"ID":"2239","projectID":"105","landOwnerID":"633","name":"Mega Nova","lastEditedDt":"8/14/2017 17:26:36","status":"1","description":"Site ID:  2239 <br>Landowner ID:  633 Last edited on:  8/14/2017 17:26:36"}},{"type":"Feature","geometry":{"type":"Point","coordinates":[-66.32,44.26]},"properties":{"ID":"2240","projectID":"105","landOwnerID":"634","name":"Georgie Porgie","lastEditedDt":"8/14/2017 17:26:36","status":"1","description":"Site ID:  2240 <br>Landowner ID:  634 Last edited on:  8/14/2017 17:26:36"}},{"type":"Feature","geometry":{"type":"Point","coordinates":[-66.34,44.26]},"properties":{"ID":"2241","projectID":"105","landOwnerID":"635","name":"Chad and Sisters Two","lastEditedDt":"8/14/2017 17:26:36","status":"1","description":"Site ID:  2241 <br>Landowner ID:  635 Last edited on:  8/14/2017 17:26:36"}}]}