{"type":"FeatureCollection","features":[{"type":"Feature","geometry":{"type":"Point","coordinates":[-76.27,34.95]},"properties":{"ID":"1502","projectID":"4","landOwnerID":"  487","name":"Cedar Island NWR, NC","lastEditedDt":"11/30/2018 14:33:45","status":"2","description":"Site ID:  1502 <br>Landowner ID:  487 Last edited on:  11/30/2018 14:33:45"}},{"type":"Feature","geometry":{"type":"Point","coordinates":[-84.16,30.08]},"properties":{"ID":"1503","projectID":"4","landOwnerID":"  549","name":"St. Marks NWR, FL","lastEditedDt":"11/30/2018 14:33:45","status":"2","description":"Site ID:  1503 <br>Landowner ID:  549 Last edited on:  11/30/2018 14:33:45"}},{"type":"Feature","geometry":{"type":"Point","coordinates":[-75.98,36.52]},"properties":{"ID":"1504","projectID":"4","landOwnerID":"  550","name":"Mackay Island NWR, NC","lastEditedDt":"11/30/2018 14:33:45","status":"2","description":"Site ID:  1504 <br>Landowner ID:  550 Last edited on:  11/30/2018 14:33:45"}},{"type":"Feature","geometry":{"type":"Point","coordinates":[-79.61,32.9]},"properties":{"ID":"1505","projectID":"4","landOwnerID":"  551","name":"Cape Romain NWR, SC (Bulls Island)","lastEditedDt":"11/30/2018 14:33:45","status":"2","description":"Site ID:  1505 <br>Landowner ID:  551 Last edited on:  11/30/2018 14:33:45"}},{"type":"Feature","geometry":{"type":"Point","coordinates":[-75.49,35.71]},"properties":{"ID":"1506","projectID":"4","landOwnerID":"  593","name":"Pea Island NWR, NC","lastEditedDt":"11/30/2018 14:33:45","status":"2","description":"Site ID:  1506 <br>Landowner ID:  593 Last edited on:  11/30/2018 14:33:45"}},{"type":"Feature","geometry":{"type":"Point","coordinates":[-79.67,32.97]},"properties":{"ID":"2439","projectID":"4","landOwnerID":"  551","name":"Cape Romain NWR, SC (HQ)","lastEditedDt":"11/30/2018 14:33:45","status":"2","description":"Site ID:  2439 <br>Landowner ID:  551 Last edited on:  11/30/2018 14:33:45"}},{"type":"Feature","geometry":{"type":"Point","coordinates":[-80.43,33.53]},"properties":{"ID":"2440","projectID":"4","landOwnerID":" 2771","name":"Santee NWR, SC","lastEditedDt":"11/30/2018 14:33:45","status":"2","description":"Site ID:  2440 <br>Landowner ID:  2771 Last edited on:  11/30/2018 14:33:45"}},{"type":"Feature","geometry":{"type":"Point","coordinates":[-82.55,28.74]},"properties":{"ID":"2474","projectID":"4","landOwnerID":" 2684","name":"Chassahowitzka NWR, FL","lastEditedDt":"11/30/2018 14:33:45","status":"2","description":"Site ID:  2474 <br>Landowner ID:  2684 Last edited on:  11/30/2018 14:33:45"}},{"type":"Feature","geometry":{"type":"Point","coordinates":[-80.11,27.03]},"properties":{"ID":"2475","projectID":"4","landOwnerID":" 2906","name":"Hobe Sound NWR, FL","lastEditedDt":"11/30/2018 14:33:45","status":"2","description":"Site ID:  2475 <br>Landowner ID:  2906 Last edited on:  11/30/2018 14:33:45"}},{"type":"Feature","geometry":{"type":"Point","coordinates":[-80.21,26.49]},"properties":{"ID":"2476","projectID":"4","landOwnerID":" 2686","name":"Loxahatchee NWR, FL","lastEditedDt":"11/30/2018 14:33:45","status":"2","description":"Site ID:  2476 <br>Landowner ID:  2686 Last edited on:  11/30/2018 14:33:45"}},{"type":"Feature","geometry":{"type":"Point","coordinates":[-81.35,26.18]},"properties":{"ID":"2477","projectID":"4","landOwnerID":" 2687","name":"Florida Panther NWR, FL","lastEditedDt":"11/30/2018 14:33:45","status":"2","description":"Site ID:  2477 <br>Landowner ID:  2687 Last edited on:  11/30/2018 14:33:45"}},{"type":"Feature","geometry":{"type":"Point","coordinates":[-81.56,25.95]},"properties":{"ID":"2478","projectID":"4","landOwnerID":" 2688","name":"Ten Thousand Islands NWR, FL","lastEditedDt":"11/30/2018 14:33:45","status":"2","description":"Site ID:  2478 <br>Landowner ID:  2688 Last edited on:  11/30/2018 14:33:45"}},{"type":"Feature","geometry":{"type":"Point","coordinates":[-82.11,26.44]},"properties":{"ID":"2479","projectID":"4","landOwnerID":" 2690","name":"Ding Darling NWR, FL","lastEditedDt":"11/30/2018 14:33:45","status":"2","description":"Site ID:  2479 <br>Landowner ID:  2690 Last edited on:  11/30/2018 14:33:45"}},{"type":"Feature","geometry":{"type":"Point","coordinates":[-81.26,31.62]},"properties":{"ID":"2485","projectID":"4","landOwnerID":" 3123","name":"Harris Neck NWR, GA","lastEditedDt":"11/30/2018 14:33:45","status":"2","description":"Site ID:  2485 <br>Landowner ID:  3123 Last edited on:  11/30/2018 14:33:45"}},{"type":"Feature","geometry":{"type":"Point","coordinates":[-81.2,31.48]},"properties":{"ID":"2500","projectID":"4","landOwnerID":" 3398","name":"Blackbeard Island NWR, GA","lastEditedDt":"11/30/2018 14:33:45","status":"2","description":"Site ID:  2500 <br>Landowner ID:  3398 Last edited on:  11/30/2018 14:33:45"}},{"type":"Feature","geometry":{"type":"Point","coordinates":[-88.78,33.27]},"properties":{"ID":"2596","projectID":"4","landOwnerID":" 7780","name":"Noxubee NWR, MS","lastEditedDt":"11/30/2018 14:33:45","status":"2","description":"Site ID:  2596 <br>Landowner ID:  7780 Last edited on:  11/30/2018 14:33:45"}},{"type":"Feature","geometry":{"type":"Point","coordinates":[-80.35,25.19]},"properties":{"ID":"2657","projectID":"4","landOwnerID":"11551","name":"Crocodile Lake NWR, FL","lastEditedDt":"11/30/2018 14:33:45","status":"2","description":"Site ID:  2657 <br>Landowner ID:  11551 Last edited on:  11/30/2018 14:33:45"}},{"type":"Feature","geometry":{"type":"Point","coordinates":[-76.2,35.45]},"properties":{"ID":"2680","projectID":"4","landOwnerID":"14768","name":"Mattamuskeet NWR, NC","lastEditedDt":"1/31/2019 15:45:59","status":"2","description":"Site ID:  2680 <br>Landowner ID:  14768 Last edited on:  1/31/2019 15:45:59"}},{"type":"Feature","geometry":{"type":"Point","coordinates":[-80.42,27.8]},"properties":{"ID":"2693","projectID":"4","landOwnerID":"15649","name":"Pelican Island NWR, FL","lastEditedDt":"3/6/2019 13:56:42","status":"2","description":"Site ID:  2693 <br>Landowner ID:  15649 Last edited on:  3/6/2019 13:56:42"}},{"type":"Feature","geometry":{"type":"Point","coordinates":[-81.35,24.67]},"properties":{"ID":"2833","projectID":"4","landOwnerID":"19394","name":"Florida Keys NWR Nature Center","lastEditedDt":"8/1/2019 13:32:19","status":"2","description":"Site ID:  2833 <br>Landowner ID:  19394 Last edited on:  8/1/2019 13:32:19"}},{"type":"Feature","geometry":{"type":"Point","coordinates":[-80.09,32.6]},"properties":{"ID":"2845","projectID":"4","name":"The Sanctuary","lastEditedDt":"8/6/2019 10:46:29","status":"1","description":"Site ID:  2845 <br>Landowner ID:  NA Last edited on:  8/6/2019 10:46:29"}},{"type":"Feature","geometry":{"type":"Point","coordinates":[-79.99,32.61]},"properties":{"ID":"2846","projectID":"4","name":"Little Bear","lastEditedDt":"8/6/2019 10:47:31","status":"2","description":"Site ID:  2846 <br>Landowner ID:  NA Last edited on:  8/6/2019 10:47:31"}},{"type":"Feature","geometry":{"type":"Point","coordinates":[-80.05,32.61]},"properties":{"ID":"2847","projectID":"4","name":"Osprey Point","lastEditedDt":"8/6/2019 10:48:20","status":"1","description":"Site ID:  2847 <br>Landowner ID:  NA Last edited on:  8/6/2019 10:48:20"}},{"type":"Feature","geometry":{"type":"Point","coordinates":[-80.06,32.62]},"properties":{"ID":"2848","projectID":"4","name":"Marsh Island","lastEditedDt":"8/6/2019 10:49:03","status":"1","description":"Site ID:  2848 <br>Landowner ID:  NA Last edited on:  8/6/2019 10:49:03"}},{"type":"Feature","geometry":{"type":"Point","coordinates":[-80.14,32.58]},"properties":{"ID":"2849","projectID":"4","name":"Captain Sams","lastEditedDt":"8/6/2019 10:49:28","status":"1","description":"Site ID:  2849 <br>Landowner ID:  NA Last edited on:  8/6/2019 10:49:28"}},{"type":"Feature","geometry":{"type":"Point","coordinates":[-83.36,33.89]},"properties":{"ID":"2930","projectID":"4","name":"ADS Office","lastEditedDt":"10/18/2019 14:22:32","status":"1","description":"Site ID:  2930 <br>Landowner ID:  NA Last edited on:  10/18/2019 14:22:32"}}]}