{"type":"FeatureCollection","features":[{"type":"Feature","geometry":{"type":"Point","coordinates":[-70.24,43.7]},"properties":{"ID":"1627","projectID":"11","name":"Gilsland Farm","lastEditedDt":"8/14/2017 17:26:36","status":"1","description":"Site ID:  1627 <br>Landowner ID:  NA Last edited on:  8/14/2017 17:26:36"}},{"type":"Feature","geometry":{"type":"Point","coordinates":[-70.15,43.68]},"properties":{"ID":"1628","projectID":"11","name":"LONG 2015","lastEditedDt":"8/14/2017 17:26:36","status":"1","description":"Site ID:  1628 <br>Landowner ID:  NA Last edited on:  8/14/2017 17:26:36"}},{"type":"Feature","geometry":{"type":"Point","coordinates":[-70.15,43.68]},"properties":{"ID":"1629","projectID":"11","name":"LONGI","lastEditedDt":"8/14/2017 17:26:36","status":"1","description":"Site ID:  1629 <br>Landowner ID:  NA Last edited on:  8/14/2017 17:26:36"}},{"type":"Feature","geometry":{"type":"Point","coordinates":[-70.15,43.68]},"properties":{"ID":"1630","projectID":"11","name":"LONGISL","lastEditedDt":"8/14/2017 17:26:36","status":"1","description":"Site ID:  1630 <br>Landowner ID:  NA Last edited on:  8/14/2017 17:26:36"}},{"type":"Feature","geometry":{"type":"Point","coordinates":[-69.31,43.76]},"properties":{"ID":"1631","projectID":"11","name":"MONHEGAN","lastEditedDt":"8/14/2017 17:26:36","status":"1","description":"Site ID:  1631 <br>Landowner ID:  NA Last edited on:  8/14/2017 17:26:36"}},{"type":"Feature","geometry":{"type":"Point","coordinates":[-67.74,44.46]},"properties":{"ID":"1632","projectID":"11","name":"NASH","lastEditedDt":"8/14/2017 17:26:36","status":"1","description":"Site ID:  1632 <br>Landowner ID:  NA Last edited on:  8/14/2017 17:26:36"}},{"type":"Feature","geometry":{"type":"Point","coordinates":[-67.86,44.36]},"properties":{"ID":"1633","projectID":"11","name":"PETITMANAN","lastEditedDt":"8/14/2017 17:26:36","status":"1","description":"Site ID:  1633 <br>Landowner ID:  NA Last edited on:  8/14/2017 17:26:36"}},{"type":"Feature","geometry":{"type":"Point","coordinates":[-69.75,43.7]},"properties":{"ID":"1634","projectID":"11","name":"SEGUIN","lastEditedDt":"8/14/2017 17:26:36","status":"1","description":"Site ID:  1634 <br>Landowner ID:  NA Last edited on:  8/14/2017 17:26:36"}},{"type":"Feature","geometry":{"type":"Point","coordinates":[-69.95,43.78]},"properties":{"ID":"1635","projectID":"11","landOwnerID":"2358","name":"Bowdoin CSC 2015","lastEditedDt":"8/14/2017 17:26:36","status":"1","description":"Site ID:  1635 <br>Landowner ID:  2358 Last edited on:  8/14/2017 17:26:36"}}]}