{"type":"FeatureCollection","features":[{"type":"Feature","geometry":{"type":"Point","coordinates":[-88.32,40.51]},"properties":{"ID":"1924","projectID":"54","name":"AFR Ford Ridge","lastEditedDt":"8/14/2017 17:26:36","status":"1","description":"Site ID:  1924 <br>Landowner ID:  NA Last edited on:  8/14/2017 17:26:36"}},{"type":"Feature","geometry":{"type":"Point","coordinates":[-86.66,39.13]},"properties":{"ID":"1925","projectID":"54","name":"Coon","lastEditedDt":"8/14/2017 17:26:36","status":"1","description":"Site ID:  1925 <br>Landowner ID:  NA Last edited on:  8/14/2017 17:26:36"}},{"type":"Feature","geometry":{"type":"Point","coordinates":[-89.03,41.32]},"properties":{"ID":"1926","projectID":"54","name":"HBL Blackball","lastEditedDt":"8/14/2017 17:26:36","status":"1","description":"Site ID:  1926 <br>Landowner ID:  NA Last edited on:  8/14/2017 17:26:36"}},{"type":"Feature","geometry":{"type":"Point","coordinates":[-86.65,39.12]},"properties":{"ID":"1927","projectID":"54","name":"HCO Coon","lastEditedDt":"8/14/2017 17:26:36","status":"1","description":"Site ID:  1927 <br>Landowner ID:  NA Last edited on:  8/14/2017 17:26:36"}},{"type":"Feature","geometry":{"type":"Point","coordinates":[-86.09,37.17]},"properties":{"ID":"1928","projectID":"54","name":"HDX Dixon","lastEditedDt":"8/14/2017 17:26:36","status":"1","description":"Site ID:  1928 <br>Landowner ID:  NA Last edited on:  8/14/2017 17:26:36"}},{"type":"Feature","geometry":{"type":"Point","coordinates":[-86.24,38.68]},"properties":{"ID":"1929","projectID":"54","name":"HEN Endless","lastEditedDt":"8/14/2017 17:26:36","status":"1","description":"Site ID:  1929 <br>Landowner ID:  NA Last edited on:  8/14/2017 17:26:36"}},{"type":"Feature","geometry":{"type":"Point","coordinates":[-91.35,39.68]},"properties":{"ID":"1930","projectID":"54","name":"HHA Hannibal","lastEditedDt":"8/14/2017 17:26:36","status":"1","description":"Site ID:  1930 <br>Landowner ID:  NA Last edited on:  8/14/2017 17:26:36"}},{"type":"Feature","geometry":{"type":"Point","coordinates":[-86.23,38.15]},"properties":{"ID":"1931","projectID":"54","name":"HJH Jug Hole","lastEditedDt":"8/14/2017 17:26:36","status":"1","description":"Site ID:  1931 <br>Landowner ID:  NA Last edited on:  8/14/2017 17:26:36"}},{"type":"Feature","geometry":{"type":"Point","coordinates":[-87.82,40.38]},"properties":{"ID":"1932","projectID":"54","name":"Hoopeston","lastEditedDt":"8/14/2017 17:26:36","status":"1","description":"Site ID:  1932 <br>Landowner ID:  NA Last edited on:  8/14/2017 17:26:36"}},{"type":"Feature","geometry":{"type":"Point","coordinates":[-84.54,39.85]},"properties":{"ID":"1933","projectID":"54","name":"HPR Preble","lastEditedDt":"8/14/2017 17:26:36","status":"1","description":"Site ID:  1933 <br>Landowner ID:  NA Last edited on:  8/14/2017 17:26:36"}},{"type":"Feature","geometry":{"type":"Point","coordinates":[-86.79,39.04]},"properties":{"ID":"1934","projectID":"54","name":"HRA Ray's","lastEditedDt":"8/14/2017 17:26:36","status":"1","description":"Site ID:  1934 <br>Landowner ID:  NA Last edited on:  8/14/2017 17:26:36"}},{"type":"Feature","geometry":{"type":"Point","coordinates":[-83.11,38.36]},"properties":{"ID":"1935","projectID":"54","name":"HSA Saltpeter Bat","lastEditedDt":"8/14/2017 17:26:36","status":"1","description":"Site ID:  1935 <br>Landowner ID:  NA Last edited on:  8/14/2017 17:26:36"}},{"type":"Feature","geometry":{"type":"Point","coordinates":[-86.23,38.43]},"properties":{"ID":"1936","projectID":"54","name":"HTD Twin Domes","lastEditedDt":"8/14/2017 17:26:36","status":"1","description":"Site ID:  1936 <br>Landowner ID:  NA Last edited on:  8/14/2017 17:26:36"}},{"type":"Feature","geometry":{"type":"Point","coordinates":[-86.03,37.97]},"properties":{"ID":"1937","projectID":"54","name":"HWA Wallier","lastEditedDt":"8/14/2017 17:26:36","status":"1","description":"Site ID:  1937 <br>Landowner ID:  NA Last edited on:  8/14/2017 17:26:36"}},{"type":"Feature","geometry":{"type":"Point","coordinates":[-86.29,38.22]},"properties":{"ID":"1938","projectID":"54","name":"HWY Wyandotte","lastEditedDt":"8/14/2017 17:26:36","status":"1","description":"Site ID:  1938 <br>Landowner ID:  NA Last edited on:  8/14/2017 17:26:36"}},{"type":"Feature","geometry":{"type":"Point","coordinates":[-85.8,41.27]},"properties":{"ID":"1939","projectID":"54","name":"N3 Chapman","lastEditedDt":"8/14/2017 17:26:36","status":"1","description":"Site ID:  1939 <br>Landowner ID:  NA Last edited on:  8/14/2017 17:26:36"}},{"type":"Feature","geometry":{"type":"Point","coordinates":[-87.43,39.49]},"properties":{"ID":"1940","projectID":"54","name":"S1 Wabashiki","lastEditedDt":"8/14/2017 17:26:36","status":"1","description":"Site ID:  1940 <br>Landowner ID:  NA Last edited on:  8/14/2017 17:26:36"}},{"type":"Feature","geometry":{"type":"Point","coordinates":[-84.84,39.11]},"properties":{"ID":"1941","projectID":"54","name":"S10 Oxbow","lastEditedDt":"8/14/2017 17:26:36","status":"1","description":"Site ID:  1941 <br>Landowner ID:  NA Last edited on:  8/14/2017 17:26:36"}},{"type":"Feature","geometry":{"type":"Point","coordinates":[-87.43,39.49]},"properties":{"ID":"1942","projectID":"54","landOwnerID":"363","name":"S1 Wabashiki","lastEditedDt":"8/14/2017 17:26:36","status":"1","description":"Site ID:  1942 <br>Landowner ID:  363 Last edited on:  8/14/2017 17:26:36"}},{"type":"Feature","geometry":{"type":"Point","coordinates":[-87.21,39.47]},"properties":{"ID":"1943","projectID":"54","landOwnerID":"363","name":"S2 Chinook","lastEditedDt":"8/14/2017 17:26:36","status":"1","description":"Site ID:  1943 <br>Landowner ID:  363 Last edited on:  8/14/2017 17:26:36"}},{"type":"Feature","geometry":{"type":"Point","coordinates":[-85.4,38.73]},"properties":{"ID":"1944","projectID":"54","landOwnerID":"380","name":"OMM Midwest Motors","lastEditedDt":"8/14/2017 17:26:36","status":"1","description":"Site ID:  1944 <br>Landowner ID:  380 Last edited on:  8/14/2017 17:26:36"}},{"type":"Feature","geometry":{"type":"Point","coordinates":[-86.48,38.33]},"properties":{"ID":"1945","projectID":"54","landOwnerID":"381","name":"WNW Cole","lastEditedDt":"8/14/2017 17:26:36","status":"1","description":"Site ID:  1945 <br>Landowner ID:  381 Last edited on:  8/14/2017 17:26:36"}},{"type":"Feature","geometry":{"type":"Point","coordinates":[-86.22,41.09]},"properties":{"ID":"1946","projectID":"54","landOwnerID":"382","name":"N1 Kern","lastEditedDt":"8/14/2017 17:26:36","status":"1","description":"Site ID:  1946 <br>Landowner ID:  382 Last edited on:  8/14/2017 17:26:36"}},{"type":"Feature","geometry":{"type":"Point","coordinates":[-86.03,41.24]},"properties":{"ID":"1947","projectID":"54","landOwnerID":"383","name":"N2 Leedy","lastEditedDt":"8/14/2017 17:26:36","status":"1","description":"Site ID:  1947 <br>Landowner ID:  383 Last edited on:  8/14/2017 17:26:36"}},{"type":"Feature","geometry":{"type":"Point","coordinates":[-85.8,41.27]},"properties":{"ID":"1948","projectID":"54","landOwnerID":"384","name":"N3 Chapman","lastEditedDt":"8/14/2017 17:26:36","status":"1","description":"Site ID:  1948 <br>Landowner ID:  384 Last edited on:  8/14/2017 17:26:36"}},{"type":"Feature","geometry":{"type":"Point","coordinates":[-85.67,41.35]},"properties":{"ID":"1949","projectID":"54","landOwnerID":"385","name":"N4 Tri-County","lastEditedDt":"8/14/2017 17:26:36","status":"1","description":"Site ID:  1949 <br>Landowner ID:  385 Last edited on:  8/14/2017 17:26:36"}},{"type":"Feature","geometry":{"type":"Point","coordinates":[-85.36,41.33]},"properties":{"ID":"1950","projectID":"54","landOwnerID":"386","name":"N5 Chain O' Lakes","lastEditedDt":"8/14/2017 17:26:36","status":"1","description":"Site ID:  1950 <br>Landowner ID:  386 Last edited on:  8/14/2017 17:26:36"}},{"type":"Feature","geometry":{"type":"Point","coordinates":[-85.14,41.49]},"properties":{"ID":"1951","projectID":"54","landOwnerID":"387","name":"N6 Hurley","lastEditedDt":"8/14/2017 17:26:36","status":"1","description":"Site ID:  1951 <br>Landowner ID:  387 Last edited on:  8/14/2017 17:26:36"}},{"type":"Feature","geometry":{"type":"Point","coordinates":[-84.83,41.54]},"properties":{"ID":"1952","projectID":"54","landOwnerID":"388","name":"N7 Douglas Woods","lastEditedDt":"8/14/2017 17:26:36","status":"1","description":"Site ID:  1952 <br>Landowner ID:  388 Last edited on:  8/14/2017 17:26:36"}},{"type":"Feature","geometry":{"type":"Point","coordinates":[-84.51,41.44]},"properties":{"ID":"1953","projectID":"54","landOwnerID":"389","name":"N8 Schultz","lastEditedDt":"8/14/2017 17:26:36","status":"1","description":"Site ID:  1953 <br>Landowner ID:  389 Last edited on:  8/14/2017 17:26:36"}},{"type":"Feature","geometry":{"type":"Point","coordinates":[-84.21,41.44]},"properties":{"ID":"1954","projectID":"54","landOwnerID":"390","name":"N9 Riefers","lastEditedDt":"8/14/2017 17:26:36","status":"1","description":"Site ID:  1954 <br>Landowner ID:  390 Last edited on:  8/14/2017 17:26:36"}},{"type":"Feature","geometry":{"type":"Point","coordinates":[-83.78,41.45]},"properties":{"ID":"1955","projectID":"54","landOwnerID":"391","name":"N10 Zitzelberger","lastEditedDt":"8/14/2017 17:26:36","status":"1","description":"Site ID:  1955 <br>Landowner ID:  391 Last edited on:  8/14/2017 17:26:36"}},{"type":"Feature","geometry":{"type":"Point","coordinates":[-85.2,39.06]},"properties":{"ID":"1956","projectID":"54","landOwnerID":"393","name":"S9 Versailles","lastEditedDt":"8/14/2017 17:26:36","status":"1","description":"Site ID:  1956 <br>Landowner ID:  393 Last edited on:  8/14/2017 17:26:36"}},{"type":"Feature","geometry":{"type":"Point","coordinates":[-86.17,38.3]},"properties":{"ID":"1957","projectID":"54","landOwnerID":"394","name":"WNE Lost Creek","lastEditedDt":"8/14/2017 17:26:36","status":"1","description":"Site ID:  1957 <br>Landowner ID:  394 Last edited on:  8/14/2017 17:26:36"}},{"type":"Feature","geometry":{"type":"Point","coordinates":[-86.6,37.89]},"properties":{"ID":"1958","projectID":"54","landOwnerID":"395","name":"OGW Governor Whitcom","lastEditedDt":"8/14/2017 17:26:36","status":"1","description":"Site ID:  1958 <br>Landowner ID:  395 Last edited on:  8/14/2017 17:26:36"}},{"type":"Feature","geometry":{"type":"Point","coordinates":[-86.43,38.19]},"properties":{"ID":"1959","projectID":"54","landOwnerID":"396","name":"WSW Wiseman","lastEditedDt":"8/14/2017 17:26:36","status":"1","description":"Site ID:  1959 <br>Landowner ID:  396 Last edited on:  8/14/2017 17:26:36"}},{"type":"Feature","geometry":{"type":"Point","coordinates":[-86.26,38.2]},"properties":{"ID":"1960","projectID":"54","landOwnerID":"397","name":"WHQ O'Bannon Woods","lastEditedDt":"8/14/2017 17:26:36","status":"1","description":"Site ID:  1960 <br>Landowner ID:  397 Last edited on:  8/14/2017 17:26:36"}},{"type":"Feature","geometry":{"type":"Point","coordinates":[-86.3,38.23]},"properties":{"ID":"1961","projectID":"54","landOwnerID":"397","name":"WIN Wyandotte cave","lastEditedDt":"8/14/2017 17:26:36","status":"1","description":"Site ID:  1961 <br>Landowner ID:  397 Last edited on:  8/14/2017 17:26:36"}},{"type":"Feature","geometry":{"type":"Point","coordinates":[-86.23,38.1]},"properties":{"ID":"1962","projectID":"54","landOwnerID":"398","name":"WSE Homestead","lastEditedDt":"8/14/2017 17:26:36","status":"1","description":"Site ID:  1962 <br>Landowner ID:  398 Last edited on:  8/14/2017 17:26:36"}},{"type":"Feature","geometry":{"type":"Point","coordinates":[-86.06,37.97]},"properties":{"ID":"1963","projectID":"54","landOwnerID":"399","name":"OCF Cedar Farm","lastEditedDt":"8/14/2017 17:26:36","status":"1","description":"Site ID:  1963 <br>Landowner ID:  399 Last edited on:  8/14/2017 17:26:36"}},{"type":"Feature","geometry":{"type":"Point","coordinates":[-85.59,39.06]},"properties":{"ID":"1964","projectID":"54","landOwnerID":"400","name":"S8 Clarkson","lastEditedDt":"8/14/2017 17:26:36","status":"1","description":"Site ID:  1964 <br>Landowner ID:  400 Last edited on:  8/14/2017 17:26:36"}},{"type":"Feature","geometry":{"type":"Point","coordinates":[-85.93,39.2]},"properties":{"ID":"1965","projectID":"54","landOwnerID":"401","name":"S7 Columbus","lastEditedDt":"8/14/2017 17:26:36","status":"1","description":"Site ID:  1965 <br>Landowner ID:  401 Last edited on:  8/14/2017 17:26:36"}},{"type":"Feature","geometry":{"type":"Point","coordinates":[-86.21,39.16]},"properties":{"ID":"1966","projectID":"54","landOwnerID":"402","name":"S6 Brown County","lastEditedDt":"8/14/2017 17:26:36","status":"1","description":"Site ID:  1966 <br>Landowner ID:  402 Last edited on:  8/14/2017 17:26:36"}},{"type":"Feature","geometry":{"type":"Point","coordinates":[-86.41,39.32]},"properties":{"ID":"1967","projectID":"54","landOwnerID":"403","name":"S5 Morgan-Monroe","lastEditedDt":"8/14/2017 17:26:36","status":"1","description":"Site ID:  1967 <br>Landowner ID:  403 Last edited on:  8/14/2017 17:26:36"}},{"type":"Feature","geometry":{"type":"Point","coordinates":[-86.72,39.28]},"properties":{"ID":"1968","projectID":"54","landOwnerID":"404","name":"S4 McCormick's Creek","lastEditedDt":"8/14/2017 17:26:36","status":"1","description":"Site ID:  1968 <br>Landowner ID:  404 Last edited on:  8/14/2017 17:26:36"}},{"type":"Feature","geometry":{"type":"Point","coordinates":[-86.88,39.47]},"properties":{"ID":"1969","projectID":"54","landOwnerID":"405","name":"S3 Lieber","lastEditedDt":"8/14/2017 17:26:36","status":"1","description":"Site ID:  1969 <br>Landowner ID:  405 Last edited on:  8/14/2017 17:26:36"}},{"type":"Feature","geometry":{"type":"Point","coordinates":[-86.35,39.64]},"properties":{"ID":"1970","projectID":"54","landOwnerID":"406","name":"MIA Indy Airport","lastEditedDt":"8/14/2017 17:26:36","status":"1","description":"Site ID:  1970 <br>Landowner ID:  406 Last edited on:  8/14/2017 17:26:36"}},{"type":"Feature","geometry":{"type":"Point","coordinates":[-84.56,38.96]},"properties":{"ID":"1971","projectID":"54","landOwnerID":"523","name":"S11 Lincoln Ridge","lastEditedDt":"8/14/2017 17:26:36","status":"1","description":"Site ID:  1971 <br>Landowner ID:  523 Last edited on:  8/14/2017 17:26:36"}},{"type":"Feature","geometry":{"type":"Point","coordinates":[-84.32,39.03]},"properties":{"ID":"1972","projectID":"54","landOwnerID":"524","name":"S12 Woodland Mound","lastEditedDt":"8/14/2017 17:26:36","status":"1","description":"Site ID:  1972 <br>Landowner ID:  524 Last edited on:  8/14/2017 17:26:36"}},{"type":"Feature","geometry":{"type":"Point","coordinates":[-83.87,41.41]},"properties":{"ID":"1973","projectID":"54","landOwnerID":"525","name":"N11 Thurston","lastEditedDt":"8/14/2017 17:26:36","status":"1","description":"Site ID:  1973 <br>Landowner ID:  525 Last edited on:  8/14/2017 17:26:36"}},{"type":"Feature","geometry":{"type":"Point","coordinates":[-86.36,41.53]},"properties":{"ID":"1974","projectID":"54","landOwnerID":"526","name":"MPC Potato Creek","lastEditedDt":"8/14/2017 17:26:36","status":"1","description":"Site ID:  1974 <br>Landowner ID:  526 Last edited on:  8/14/2017 17:26:36"}},{"type":"Feature","geometry":{"type":"Point","coordinates":[-87.98,40.39]},"properties":{"ID":"1975","projectID":"54","landOwnerID":"530","name":"AMFN MIddle Fork Nor","lastEditedDt":"8/14/2017 17:26:36","status":"1","description":"Site ID:  1975 <br>Landowner ID:  530 Last edited on:  8/14/2017 17:26:36"}},{"type":"Feature","geometry":{"type":"Point","coordinates":[-87.97,40.38]},"properties":{"ID":"1976","projectID":"54","landOwnerID":"530","name":"AMFS Middle Fork Sou","lastEditedDt":"8/14/2017 17:26:36","status":"1","description":"Site ID:  1976 <br>Landowner ID:  530 Last edited on:  8/14/2017 17:26:36"}}]}