{"type":"FeatureCollection","features":[{"type":"Feature","geometry":{"type":"Point","coordinates":[-83.22,41.62]},"properties":{"ID":"1743","projectID":"18","name":"CRANE","lastEditedDt":"8/14/2017 17:26:36","status":"1","description":"Site ID:  1743 <br>Landowner ID:  NA Last edited on:  8/14/2017 17:26:36"}},{"type":"Feature","geometry":{"type":"Point","coordinates":[-83.24,41.62]},"properties":{"ID":"1744","projectID":"18","name":"Eagle Nest","lastEditedDt":"8/14/2017 17:26:36","status":"1","description":"Site ID:  1744 <br>Landowner ID:  NA Last edited on:  8/14/2017 17:26:36"}},{"type":"Feature","geometry":{"type":"Point","coordinates":[-83.24,41.62]},"properties":{"ID":"1745","projectID":"18","name":"Eagle Nest 1","lastEditedDt":"8/14/2017 17:26:36","status":"1","description":"Site ID:  1745 <br>Landowner ID:  NA Last edited on:  8/14/2017 17:26:36"}},{"type":"Feature","geometry":{"type":"Point","coordinates":[-83.24,41.62]},"properties":{"ID":"1746","projectID":"18","name":"Eagle Nest 2","lastEditedDt":"8/14/2017 17:26:36","status":"1","description":"Site ID:  1746 <br>Landowner ID:  NA Last edited on:  8/14/2017 17:26:36"}},{"type":"Feature","geometry":{"type":"Point","coordinates":[-82.96,41.43]},"properties":{"ID":"1747","projectID":"18","name":"Pickerel Creek","lastEditedDt":"8/14/2017 17:26:36","status":"1","description":"Site ID:  1747 <br>Landowner ID:  NA Last edited on:  8/14/2017 17:26:36"}},{"type":"Feature","geometry":{"type":"Point","coordinates":[-83.21,41.63]},"properties":{"ID":"1748","projectID":"18","name":"Pool9","lastEditedDt":"8/14/2017 17:26:36","status":"1","description":"Site ID:  1748 <br>Landowner ID:  NA Last edited on:  8/14/2017 17:26:36"}},{"type":"Feature","geometry":{"type":"Point","coordinates":[-82.82,41.4]},"properties":{"ID":"1749","projectID":"18","name":"Resthaven","lastEditedDt":"8/14/2017 17:26:36","status":"1","description":"Site ID:  1749 <br>Landowner ID:  NA Last edited on:  8/14/2017 17:26:36"}},{"type":"Feature","geometry":{"type":"Point","coordinates":[-83.24,41.62]},"properties":{"ID":"1750","projectID":"18","name":"SBES","lastEditedDt":"8/14/2017 17:26:36","status":"1","description":"Site ID:  1750 <br>Landowner ID:  NA Last edited on:  8/14/2017 17:26:36"}},{"type":"Feature","geometry":{"type":"Point","coordinates":[-83.23,41.61]},"properties":{"ID":"1751","projectID":"18","name":"Stangee1","lastEditedDt":"8/14/2017 17:26:36","status":"1","description":"Site ID:  1751 <br>Landowner ID:  NA Last edited on:  8/14/2017 17:26:36"}},{"type":"Feature","geometry":{"type":"Point","coordinates":[-83.23,41.61]},"properties":{"ID":"1752","projectID":"18","name":"Stangee1 dep 2","lastEditedDt":"8/14/2017 17:26:36","status":"1","description":"Site ID:  1752 <br>Landowner ID:  NA Last edited on:  8/14/2017 17:26:36"}},{"type":"Feature","geometry":{"type":"Point","coordinates":[-83.23,41.61]},"properties":{"ID":"1753","projectID":"18","name":"Stangee2","lastEditedDt":"8/14/2017 17:26:36","status":"1","description":"Site ID:  1753 <br>Landowner ID:  NA Last edited on:  8/14/2017 17:26:36"}},{"type":"Feature","geometry":{"type":"Point","coordinates":[-83.23,41.61]},"properties":{"ID":"1754","projectID":"18","name":"Stangee2 dep2","lastEditedDt":"8/14/2017 17:26:36","status":"1","description":"Site ID:  1754 <br>Landowner ID:  NA Last edited on:  8/14/2017 17:26:36"}},{"type":"Feature","geometry":{"type":"Point","coordinates":[-83.21,41.63]},"properties":{"ID":"1755","projectID":"18","name":"Weir Tower 1","lastEditedDt":"8/14/2017 17:26:36","status":"1","description":"Site ID:  1755 <br>Landowner ID:  NA Last edited on:  8/14/2017 17:26:36"}},{"type":"Feature","geometry":{"type":"Point","coordinates":[-83.21,41.63]},"properties":{"ID":"1756","projectID":"18","name":"Weir Tower 2","lastEditedDt":"8/14/2017 17:26:36","status":"1","description":"Site ID:  1756 <br>Landowner ID:  NA Last edited on:  8/14/2017 17:26:36"}},{"type":"Feature","geometry":{"type":"Point","coordinates":[-82.98,41.46]},"properties":{"ID":"1757","projectID":"18","name":"Winous Point","lastEditedDt":"8/14/2017 17:26:36","status":"1","description":"Site ID:  1757 <br>Landowner ID:  NA Last edited on:  8/14/2017 17:26:36"}}]}