{
"data":[
  {
    "ID": 1627,
    "projectID": 11,
    "landOwnerID": "NA",
    "name": "Gilsland Farm",
    "latitude": 43.7,
    "longitude": -70.24,
    "lastEditedDt": "8/14/2017 17:26:36"
  },
  {
    "ID": 1628,
    "projectID": 11,
    "landOwnerID": "NA",
    "name": "LONG 2015",
    "latitude": 43.68,
    "longitude": -70.15,
    "lastEditedDt": "8/14/2017 17:26:36"
  },
  {
    "ID": 1629,
    "projectID": 11,
    "landOwnerID": "NA",
    "name": "LONGI",
    "latitude": 43.68,
    "longitude": -70.15,
    "lastEditedDt": "8/14/2017 17:26:36"
  },
  {
    "ID": 1630,
    "projectID": 11,
    "landOwnerID": "NA",
    "name": "LONGISL",
    "latitude": 43.68,
    "longitude": -70.15,
    "lastEditedDt": "8/14/2017 17:26:36"
  },
  {
    "ID": 1631,
    "projectID": 11,
    "landOwnerID": "NA",
    "name": "MONHEGAN",
    "latitude": 43.76,
    "longitude": -69.31,
    "lastEditedDt": "8/14/2017 17:26:36"
  },
  {
    "ID": 1632,
    "projectID": 11,
    "landOwnerID": "NA",
    "name": "NASH",
    "latitude": 44.46,
    "longitude": -67.74,
    "lastEditedDt": "8/14/2017 17:26:36"
  },
  {
    "ID": 1633,
    "projectID": 11,
    "landOwnerID": "NA",
    "name": "PETITMANAN",
    "latitude": 44.36,
    "longitude": -67.86,
    "lastEditedDt": "8/14/2017 17:26:36"
  },
  {
    "ID": 1634,
    "projectID": 11,
    "landOwnerID": "NA",
    "name": "SEGUIN",
    "latitude": 43.7,
    "longitude": -69.75,
    "lastEditedDt": "8/14/2017 17:26:36"
  },
  {
    "ID": 1635,
    "projectID": 11,
    "landOwnerID": 2358,
    "name": "Bowdoin CSC 2015",
    "latitude": 43.78,
    "longitude": -69.95,
    "lastEditedDt": "8/14/2017 17:26:36"
  }
], "columns":[
  {
    "data": "ID",
    "name": "ID"
  },
  {
    "data": "projectID",
    "name": "Project ID"
  },
  {
    "data": "landOwnerID",
    "name": "Land Owner ID"
  },
  {
    "data": "name",
    "name": "Name"
  },
  {
    "data": "latitude",
    "name": "Latitude"
  },
  {
    "data": "longitude",
    "name": "Longitude"
  },
  {
    "data": "lastEditedDt",
    "name": "Last Edited Date"
  }
]
}
